5837.996,,,,,0,00,,,M,0.0,M,,0000*5E
$GPGGA,075838.996,,,,,0,00,,,M,0.0,M,,0000*51
$GPGGA,075839.996,,,,,0,00,,,M,0.0,M,,0000*50
$GPGGA,075840.996,,,,,0,00,,,M,0.0,M,,0000*5E
$GPGGA,075841.997,,,,,0,00,,,M,0.0,M,,0000*5E
$GPGGA,075842.997,,,,,0,00,,,M,0.0,M,,0000*5D
$GPGGA,075843.996,,,,,0,00,,,M,0.0,M,,0000*5D
$GPGGA,075844.996,,,,,0,00,,,M,0.0,M,,0000*5A
$GPGGA,075845.996,,,,,0,00,,,M,0.0,M,,0000*5B
$GPGGA,075846.996,,,,,0,00,,,M,0.0,M,,0000*58
$GPGGA,075847.996,,,,,0,00,,,M,0.0,M,,0000*59
$GPGGA,075848.996,,,,,0,00,,,M,0.0,M,,0000*56
$GPGGA,075849.996,,,,,0,00,,,M,0.0,M,,0000*57
$GPGGA,075850.996,,,,,0,00,,,M,0.0,M,,0000*5F
$GPGGA,075851.996,,,,,0,00,,,M,0.0,M,,0000*5E
$GPGGA,075852.996,,,,,0,00,,,M,0.0,M,,0000*5D
$GPGGA,075853.996,,,,,0,00,,,M,0.0,M,,0000*5C
$GPGGA,075854.996,,,,,0,00,,,M,0.0,M,,0000*5B
$GPGGA,075855.996,,,,,0,00,,,M,0.0,M,,0000*5A
$GPGGA,075857.010,,,,,0,00,,,M,0.0,M,,0000*5F
$GPGGA,075857.996,,,,,0,00,,,M,0.0,M,,0000*58
$GPGGA,075858.996,,,,,0,00,,,M,0.0,M,,0000*57
$GPGGA,075859.996,,,,,0,00,,,M,0.0,M,,0000*56
$GPGGA,075900.996,,,,,0,00,,,M,0.0,M,,0000*5B
$GPGGA,075901.996,,,,,0,00,,,M,0.0,M,,0000*5A
$GPGGA,075902.996,,,,,0,00,,,M,0.0,M,,0000*59
$GPGGA,075903.996,,,,,0,00,,,M,0.0,M,,0000*58
$GPGGA,075904.996,,,,,0,00,,,M,0.0,M,,0000*5F
$GPGGA,075905.996,,,,,0,00,,,M,0.0,M,,0000*5E
$GPGGA,075906.996,,,,,0,00,,,M,0.0,M,,0000*5D
$GPGGA,075907.998,,,,,0,00,,,M,0.0,M,,0000*52
$GPGGA,075908.998,,,,,0,00,,,M,0.0,M,,0000*5D
$GPGGA,075909.997,,,,,0,00,,,M,0.0,M,,0000*53
$GPGGA,075910.998,,,,,0,00,,,M,0.0,M,,0000*54
$GPGGA,075911.996,,,,,0,00,,,M,0.0,M,,0000*5B
$GPGGA,075912.997,,,,,0,00,,,M,0.0,M,,0000*59
$GPGGA,075913.996,,,,,0,00,,,M,0.0,M,,0000*59
$GPGGA,075915.011,,,,,0,00,,,M,0.0,M,,0000*59
$GPGGA,075915.996,,,,,0,00,,,M,0.0,M,,0000*5F
$GPGGA,075916.996,,,,,0,00,,,M,0.0,M,,0000*5C
$GPGGA,075917.996,,,,,0,00,,,M,0.0,M,,0000*5D
$GPGGA,075918.996,,,,,0,00,,,M,0.0,M,,0000*52
$GPGGA,075919.996,,,,,0,00,,,M,0.0,M,,0000*53
$GPGGA,075920.996,,,,,0,00,,,M,0.0,M,,0000*59
$GPGGA,075921.996,,,,,0,00,,,M,0.0,M,,0000*58
$GPGGA,075922.996,,,,,0,00,,,M,0.0,M,,0000*5B
$GPGGA,075923.996,,,,,0,00,,,M,0.0,M,,0000*5A
$GPGGA,075924.996,,,,,0,00,,,M,0.0,M,,0000*5D
$GPGGA,075925.996,,,,,0,00,,,M,0.0,M,,0000*5C
$GPGGA,075926.996,,,,,0,00,,,M,0.0,M,,0000*5F
$GPGGA,075927.996,,,,,0,00,,,M,0.0,M,,0000*5E
$GPGGA,075928.996,,,,,0,00,,,M,0.0,M,,0000*51
$GPGGA,075929.996,,,,,0,00,,,M,0.0,M,,0000*50
$GPGGA,075930.996,,,,,0,00,,,M,0.0,M,,0000*58
$GPGGA,075931.996,,,,,0,00,,,M,0.0,M,,0000*59
$GPGGA,075932.996,,,,,0,00,,,M,0.0,M,,0000*5A
$GPGGA,075933.996,,,,,0,00,,,M,0.0,M,,0000*5B
$GPGGA,075934.996,,,,,0,00,,,M,0.0,M,,0000*5C
$GPGGA,075935.996,,,,,0,00,,,M,0.0,M,,0000*5D
$GPGGA,075936.996,,,,,0,00,,,M,0.0,M,,0000*5E
$GPGGA,075937.996,,,,,0,00,,,M,0.0,M,,0000*5F
$GPGGA,075938.991,,,,,0,00,,,M,0.0,M,,0000*57
$GPGGA,075939.996,,,,,0,00,,,M,0.0,M,,0000*51
$GPGGA,075940.991,,,,,0,00,,,M,0.0,M,,0000*58
$GPGGA,075941.991,,,,,0,00,,,M,0.0,M,,0000*59
$GPGGA,075942.991,,,,,0,00,,,M,0.0,M,,0000*5A
$GPGGA,075943.991,,,,,0,00,,,M,0.0,M,,0000*5B
$GPGGA,075944.996,,,,,0,00,,,M,0.0,M,,0000*5B
$GPGGA,075945.991,,,,,0,00,,,M,0.0,M,,0000*5D
$GPGGA,075946.991,,,,,0,00,,,M,0.0,M,,0000*5E
$GPGGA,075947.996,,,,,0,00,,,M,0.0,M,,0000*58
$GPGGA,075948.991,,,,,0,00,,,M,0.0,M,,0000*50
$GPGGA,075949.991,,,,,0,00,,,M,0.0,M,,0000*51
$GPGGA,075950.995,,,,,0,00,,,M,0.0,M,,0000*5D
$GPGGA,075951.995,,,,,0,00,,,M,0.0,M,,0000*5C
$GPGGA,075952.995,,,,,0,00,,,M,0.0,M,,0000*5F
$GPGGA,075953.995,,,,,0,00,,,M,0.0,M,,0000*5E
$GPGGA,075954.996,,,,,0,00,,,M,0.0,M,,0000*5A
$GPGGA,075955.995,,,,,0,00,,,M,0.0,M,,0000*58
$GPGGA,075956.996,,,,,0,00,,,M,0.0,M,,0000*58
$GPGGA,075957.991,,,,,0,00,,,M,0.0,M,,0000*5E
$GPGGA,075958.996,,,,,0,00,,,M,0.0,M,,0000*56
$GPGGA,075959.996,,,,,0,00,,,M,0.0,M,,0000*57
$GPGGA,080000.995,,,,,0,00,,,M,0.0,M,,0000*5B
$GPGGA,080001.996,,,,,0,00,,,M,0.0,M,,0000*59
$GPGGA,080003.005,4304.5882,N,14120.4201,E,0,04,,59.5,M,33.1,M,,0000*44
$GPGGA,080004.001,4304.5889,N,14120.4220,E,1,04,5.3,42.1,M,33.1,M,,0000*68
$GPGGA,080005.001,4304.5887,N,14120.4223,E,1,04,5.3,40.3,M,33.1,M,,0000*64
$GPGGA,080006.001,4304.5886,N,14120.4225,E,1,04,5.3,39.6,M,33.1,M,,0000*6B
$GPGGA,080007.001,4304.5885,N,14120.4228,E,1,04,5.3,39.4,M,33.1,M,,0000*66
$GPGGA,080008.005,4304.5886,N,14120.4226,E,1,04,5.3,39.5,M,33.1,M,,0000*61
$GPGGA,080009.005,4304.5887,N,14120.4224,E,1,04,5.3,40.0,M,33.1,M,,0000*68
$GPGGA,080010.005,4304.5888,N,14120.4219,E,1,04,5.3,40.5,M,33.1,M,,0000*64
$GPGGA,080011.001,4304.5889,N,14120.4216,E,1,04,5.3,40.7,M,33.1,M,,0000*6D
$GPGGA,080012.001,4304.5888,N,14120.4215,E,1,04,5.3,40.2,M,33.1,M,,0000*69
$GPGGA,080013.001,4304.5889,N,14120.4211,E,1,04,5.3,40.7,M,33.1,M,,0000*68
$GPGGA,080014.001,4304.5890,N,14120.4208,E,1,04,5.3,40.9,M,33.1,M,,0000*61
$GPGGA,080015.001,4304.5891,N,14120.4207,E,1,04,5.3,41.5,M,33.1,M,,0000*63
$GPGGA,080016.000,4304.5891,N,14120.4205,E,1,04,5.4,41.5,M,33.1,M,,0000*64
$GPGGA,080017.001,4304.5892,N,14120.4201,E,1,04,5.4,41.7,M,33.1,M,,0000*61
$GPGGA,080018.001,4304.5892,N,14120.4200,E,1,04,5.4,41.4,M,33.1,M,,0000*6C
$GPGGA,080019.001,4304.5893,N,14120.4196,E,1,04,5.4,41.8,M,33.1,M,,0000*6C
$GPGGA,080020.001,4304.5893,N,14120.4197,E,1,04,5.4,41.8,M,33.1,M,,0000*67
$GPGGA,080021.001,4304.5893,N,14120.4197,E,1,04,5.4,41.8,M,33.1,M,,0000*66
$GPGGA,080022.001,4304.5892