1007.000000
$GPGGA,061022.000,4334.8334,N,14159.9811,E,1,10,1.0,48.1,M,31.5,M,,0000*64
480,548,571,23.750000,1006.609376
$GPGGA,061024.000,4334.8332,N,14159.9811,E,1,10,1.0,48.4,M,31.5,M,,0000*61
491,501,550,23.750000,1005.796880
$GPGGA,061026.000,4334.8332,N,14159.9811,E,1,10,1.0,48.4,M,31.5,M,,0000*63
500,512,558,23.750000,1007.796880
$GPGGA,061028.000,4334.8332,N,14159.9811,E,1,10,1.0,48.4,M,31.5,M,,0000*6D
514,507,567,23.750000,1004.203124
$GPGGA,061030.000,4334.8332,N,14159.9811,E,1,10,1.0,48.4,M,31.5,M,,0000*64
506,520,571,23.750000,1005.796880
$GPGGA,061032.000,4334.8332,N,14159.9811,E,1,10,1.0,48.4,M,31.5,M,,0000*66
503,515,574,23.812496,1007.796880
$GPGGA,061034.000,4334.8332,N,14159.9811,E,1,10,1.0,48.4,M,31.5,M,,0000*60
491,523,572,23.812496,1005.390624
$GPGGA,061036.000,4334.8332,N,14159.9811,E,1,10,1.0,48.4,M,31.5,M,,0000*62
499,523,572,23.812496,1005.390624
$GPGGA,061038.000,4334.8332,N,14159.9811,E,1,10,1.0,48.4,M,31.5,M,,0000*6C
505,525,572,23.812496,1004.593744
$GPGGA,061040.000,4334.8332,N,14159.9811,E,1,10,1.0,48.4,M,31.5,M,,0000*63
505,523,572,23.812496,1005.390624
$GPGGA,061042.000,4334.8332,N,14159.9811,E,1,10,1.0,48.4,M,31.5,M,,0000*61
505,520,571,23.812496,1005.015625
$GPGGA,061044.000,4334.8332,N,14159.9811,E,1,10,1.0,48.4,M,31.5,M,,0000*67
505,520,572,23.875008,1006.609376
$GPGGA,061046.000,4334.8332,N,14159.9811,E,1,10,1.0,48.4,M,31.5,M,,0000*65
505,523,572,23.875008,1007.000000
$GPGGA,061048.000,4334.8332,N,14159.9811,E,1,10,1.0,48.4,M,31.5,M,,0000*6B
506,525,570,23.875008,1006.609376
$GPGGA,061050.000,4334.8332,N,14159.9811,E,1,10,1.0,48.4,M,31.5,M,,0000*62
504,521,573,23.812496,1005.390624
$GPGGA,061052.000,4334.8332,N,14159.9811,E,1,10,1.0,48.4,M,31.5,M,,0000*60
502,522,574,23.875008,1004.593744
$GPGGA,061054.000,4334.8332,N,14159.9811,E,1,10,1.0,48.4,M,31.5,M,,0000*66
505,522,573,23.875008,1005.796880
$GPGGA,061056.000,4334.8332,N,14159.9811,E,1,10,1.0,48.4,M,31.5,M,,0000*64
504,526,572,23.875008,1006.609376
$GPGGA,061058.000,4334.8332,N,14159.9811,E,1,10,1.0,48.4,M,31.5,M,,0000*6A
505,522,573,23.875008,1006.187500
$GPGGA,061100.000,4334.8332,N,14159.9811,E,1,10,1.0,48.4,M,31.5,M,,0000*66
506,522,572,23.875008,1004.203124
$GPGGA,061102.000,4334.8332,N,14159.9811,E,1,10,1.0,48.4,M,31.5,M,,0000*64
505,525,572,23.875008,1005.000000
$GPGGA,061104.000,4334.8332,N,14159.9811,E,1,10,1.0,48.4,M,31.5,M,,0000*62
505,525,572,23.875008,1005.796880
$GPGGA,061106.000,4334.8332,N,14159.9811,E,1,10,1.0,48.4,M,31.5,M,,0000*60
506,521,572,23.875008,1007.000000
$GPGGA,061108.000,4334.8332,N,14159.9811,E,1,10,1.0,48.4,M,31.5,M,,0000*6E
505,522,572,23.937504,1005.390624
$GPGGA,061110.000,4334.8332,N,14159.9811,E,1,10,1.0,48.4,M,31.5,M,,0000*67
505,522,573,23.875008,1007.000000
$GPGGA,061112.000,4334.8332,N,14159.9811,E,1,10,1.0,48.4,M,31.5,M,,0000*65
505,522,571,23.875008,1005.390624
$GPGGA,061114.000,4334.8332,N,14159.9811,E,1,10,1.0,48.4,M,31.5,M,,0000*63
505,522,573,23.937504,1006.609376
$GPGGA,061116.000,4334.8332,N,14159.9811,E,1,10,1.0,48.4,M,31.5,M,,0000*61
505,522,575,23.875008,1006.609376
$GPGGA,061118.000,4334.8332,N,14159.9811,E,1,10,1.0,48.4,M,31.5,M,,0000*6F
505,521,572,23.937504,1005.390624
$GPGGA,061120.000,4334.8332,N,14159.9811,E,1,10,1.0,48.4,M,31.5,M,,0000*64
505,520,572,23.937504,1006.187500
$GPGGA,061122.000,4334.8332,N,14159.9811,E,1,10,1.0,48.4,M,31.5,M,,0000*66
505,521,578,23.937504,1008.203124
$GPGGA,061124.000,4334.8332,N,14159.9811,E,1,10,1.0,48.4,M,31.5,M,,0000*60
505,521,572,23.937504,1007.000000
$GPGGA,061126.000,4334.8332,N,14159.9811,E,1,10,1.0,48.4,M,31.5,M,,0000*62
505,522,572,23.937504,1005.796880
$GPGGA,061128.000,4334.8332,N,14159.9811,E,1,10,1.0,48.4,M,31.5,M,,0000*6C
506,522,574,23.937504,1007.000000
$GPGGA,061130.000,4334.8332,N,14159.9811,E,1,10,1.0,48.4,M,31.5,M,,0000*65
505,521,572,24.000000,1007.000000
$GPGGA,061132.000,4334.8332,N,14159.9811,E,1,10,1.0,48.4,M,31.5,M,,0000*67
504,521,573,23.937504,1005.390624
$GPGGA,061134.000,4334.8332,N,14159.9811,E,1,10,1.0,48.4,M,31.5,M,,0000*61
505,522,572,24.000000,1007.000000
$GPGGA,061136.000,4334.8332,N,14159.9811,E,1,10,1.0,48.4,M,31.5,M,,0000*63
505,522,572,23.937504,1007.000000
$GPGGA,061138.000,4334.8332,N,14159.9811,E,1,10,1.0,48.4,M,31.5,M,,0000*6D
505,522,573,24.000000,1005.796880
$GPGGA,061140.000,4334.8332,N,14159.9811,E,1,10,1.0,48.4,M,31.5,M,,0000*62
505,522,573,23.937504,1007.000000
$GPGGA,061142.000,4334.8332,N,14159.9811,E,1,10,1.0,48.4,M,31.5,M,,0000*60
505,521,572,23.937504,1005.796880
$GPGGA,061144.000,4334.8332,N,14159.9811,E,1,10,1.0,48.4,M,31.5,M,,0000*66
505,522,573,24.000000,1004.593744
$GPGGA,061146.000,4334.8332,N,14159.9811,E,1,10,1.0,48.4,M,31.5,M,,0000*64
505,522,573,24.000000,1006.187500
$GPGGA,061148.000,4334.8332,N,14159.9811,E,1,10,1.0,48.4,M,31.5,M,,0000*6A
504,522,573,24.000000,1007.390624
$GPGGA,061150.000,4334.8332,N,14159.9811,E,1,10,1.0,48.4,M,31.5,M,,0000*63
505,521,573,24.000000,1005.390624
$GPGGA,061152.000,4334.8332,N,14159.9811,E,1,10,1.0,48.4,M,31.5,M,,0000*61
505,522,573,24.000000,1007.000000
$GPGGA,061154.000,4334.8332,N,14159.9811,E,1,10,1.0,48.4,M,31.5,M,,0000*67
504,521,572,24.000000,1005.796880
$GPGGA,061156.000,4334.8332,N,14159.9811,E,1,10,1.0,48.4,M,31.5,M,,0000*65
506,526,572,24.000000,1004.203124
$GPGGA,061158.000,4334.8332,N,14159.9811,E,1,10,1.0,48.4,M,31.5,M,,0000*6B
503,526,573,24.062500,1005.796880
$GPGGA,061200.000,4334.8332,N,14159.9811,E,1,10,1.0,48.4,M,31.5,M,,0000*65
506,522,573,24.062500,1007.000000
$GPGGA,061202.000,4334.8332,N,14159.9811,E,1,10,1.0,48.4,M,31.5,M,,0000*67
504,522,574,24.062500,1005.000000
$GPGGA,061204.000,4334.8332,N,14159.9811,E,1,10,1.0,48.4,M,31.5,M,,0000*61
504,523,572,24.062500,1004.593744
$GPGGA,061206.000,4334.8332,N,14159.9811,E,1,10,1.0,48.4,M,31.5,M,,0000*63
505,529,572,24.062500,1007.000000
$GPGGA,061208.000,4334.8332,N,14159.9811,E,1,10,1.0,48.4,M,31.5,M,,0000*6D
528,576,618,24.062500,1003.781248
$GPGGA,061210.000,4334.8328,N,14159.9814,E,1,10,1.0,50.0,M,31.5,M,,0000*67
522,480,503,24.062500,996.203124
$GPGGA,061212.000,4334.8340,N,14159.9854,E,1,10,1.0,51.3,M,31.5,M,,0000*6D
504,522,509,24.062500,994.171876
$GPGGA,061214.000,4334.8268,N,14159.9945,E,1,10,1.0,53.0,M,31.5,M,,0000*60
570,598,636,24.062500,997.781248
$GPGGA,061216.000,4334.8249,N,14200.0021,E,1,10,1.0,54.9,M,31.5,M,,0000*62
534,505,543,24.000000,997.000000
$GPGGA,061218.000,4334.8189,N,14200.0075,E,1,10,1.0,57.8,M,31.5,M,,0000*60
547,488,553,24.125000,998.984368
$GPGGA,061220.000,4334.8128,N,14200.0166,E,1,10,1.0,61.3,M,31.5,M,,0000*6D
538,470,517,24.125000,1000.203124
$GPGGA,061222.000,4334.8082,N,14200.0230,E,1,10,1.0,64.2,M,31.5,M,,0000*6A
574,494,551,24.125000,1001.015625
$GPGGA,061224.000,4334.8000,N,14200.0310,E,1,10,1.0,67.5,M,31.5,M,,0000*61
565,490,552,24.125000,1003.390624
$GPGGA,061226.000,4334.7912,N,14200.0337,E,1,10,1.0,67.1,M,31.5,M,,0000*67
555,497,559,24.125000,1003.781248
$GPGGA,061228.000,4334.7822,N,14200.0378,E,1,10,1.0,63.6,M,31.5,M,,0000*63
518,532,564,24.125000,1005.796880
$GPGGA,061230.000,4334.7771,N,14200.0398,E,1,10,1.0,59.3,M,31.5,M,,0000*61416,24.125000,1007.390624
$GPGGA,061234.000,4334.7748,N,14200.0372,E,1,10,1.0,50.3,M,31.5,M,,0000*62
453,458,420,24.125000,1006.187500
$GPGGA,061236.000,4334.7753,N,14200.0351,E,1,10,1.0,50.4,M,31.5,M,,0000*6C
431,486,445,24.125000,1007.000000
$GPGGA,061238.000,4334.7755,N,14200.0335,E,1,10,1.0,50.4,M,31.5,M,,0000*66
495,476,440,24.125000,1006.187500
$GPGGA,061240.000,4334.7757,N,14200.0325,E,1,10,1.0,49.9,M,31.5,M,,0000*6F
467,502,423,24.125000,1005.796880
$GPGGA,061242.000,4334.7754,N,14200.0318,E,1,10,1.0,49.8,M,31.5,M,,0000*61
527,494,487,24.125000,1006.187500
$GPGGA,061244.000,4334.7755,N,14200.0309,E,1,10,1.0,49.4,M,31.5,M,,0000*6A
564,387,482,24.125000,1005.796880
$GPGGA,061246.000,4334.7758,N,14200.0293,E,1,10,1.0,49.0,M,31.5,M,,0000*63
532,432,493,24.125000,1004.593744
$GPGGA,061248.000,4334.7767,N,14200.0271,E,1,10,1.0,48.7,M,31.5,M,,0000*6B
550,407,479,24.125000,1007.000000
$GPGGA,061250.000,4334.7776,N,14200.0249,E,1,10,1.0,48.5,M,31.5,M,,0000*6B
592,445,483,24.125000,1006.187500
$GPGGA,061252.000,4334.7780,N,14200.0232,E,1,10,1.0,48.4,M,31.5,M,,0000*6D
527,532,483,24.125000,1006.578128
$GPGGA,061254.000,4334.7782,N,14200.0218,E,1,10,1.0,48.2,M,31.5,M,,0000*67
572,523,527,24.187500,1005.796880
$GPGGA,061256.000,4334.7778,N,14200.0209,E,1,10,1.0,48.2,M,31.5,M,,0000*60
549,523,560,24.187500,1006.187500
$GPGGA,061258.000,4334.7777,N,14200.0197,E,1,10,1.0,47.9,M,31.5,M,,0000*61
521,531,581,24.187500,1007.765632
$GPGGA,061300.000,4334.7776,N,14200.0185,E,1,10,1.0,47.5,M,31.5,M,,0000*63
488,529,571,24.312504,1007.390624
$GPGGA,061302.000,4334.7778,N,14200.0170,E,1,10,1.0,47.5,M,31.5,M,,0000*65
566,504,493,24.250000,1005.796880
$GPGGA,061304.000,4334.7780,N,14200.0152,E,1,10,1.0,46.9,M,31.5,M,,0000*69
568,508,519,24.187500,1006.187500
$GPGGA,061306.000,4334.7785,N,14200.0137,E,1,10,1.0,46.5,M,31.5,M,,0000*61
575,531,525,24.250000,1005.796880
$GPGGA,061308.000,4334.7788,N,14200.0127,E,1,10,1.0,46.3,M,31.5,M,,0000*65
553,580,515,24.250000,1005.796880
$GPGGA,061310.000,4334.7790,N,14200.0122,E,1,10,1.0,46.7,M,31.5,M,,0000*64
478,522,568,24.187500,1005.390624
$GPGGA,061312.000,4334.7790,N,14200.0122,E,1,10,1.0,46.6,M,31.5,M,,0000*67
501,560,598,24.250000,1007.000000
$GPGGA,061314.000,4334.7790,N,14200.0122,E,1,10,1.0,46.6,M,31.5,M,,0000*61
510,546,592,24.250000,1007.000000
$GPGGA,061316.000,4334.7790,N,14200.0122,E,1,10,1.0,46.6,M,31.5,M,,0000*63
498,555,592,24.250000,1007.000000
$GPGGA,061318.000,4334.7790,N,14200.0122,E,1,10,1.0,46.6,M,31.5,M,,0000*6D
507,562,601,24.250000,1006.609376
$GPGGA,061320.000,4334.7790,N,14200.0122,E,1,10,1.0,46.6,M,31.5,M,,0000*66
505,565,600,24.312504,1008.203124
$GPGGA,061322.000,4334.7790,N,14200.0122,E,1,10,1.0,46.6,M,31.5,M,,0000*64
513,555,601,24.312504,1007.000000
$GPGGA,061324.000,4334.7790,N,14200.0122,E,1,10,1.0,46.6,M,31.5,M,,0000*62
507,564,604,24.312504,1007.000000
$GPGGA,061326.000,4334.7790,N,14200.0122,E,1,10,1.0,46.6,M,31.5,M,,0000*60
505,560,596,24.312504,1007.390624
$GPGGA,061328.000,4334.7790,N,14200.0122,E,1,10,1.0,46.6,M,31.5,M,,0000*6E
541,517,562,24.312504,1006.187500
$GPGGA,061330.000,4334.7790,N,14200.0122,E,1,10,1.0,46.6,M,31.5,M,,0000*67
551,537,593,24.375000,1005.390624
$GPGGA,061332.000,4334.7790,N,14200.0122,E,1,10,1.0,46.6,M,31.5,M,,0000*65
553,496,597,24.437504,1007.390624
$GPGGA,061334.000,4334.7790,N,14200.0122,E,1,10,1.0,46.6,M,31.5,M,,0000*63
574,564,573,24.375000,1007.765632
$GPGGA,061336.000,4334.7790,N,14200.0122,E,1,10,1.0,46.6,M,31.5,M,,0000*61
550,560,589,24.437504,1007.390624
$GPGGA,061338.000,4334.7790,N,14200.0122,E,1,10,1.0,46.6,M,31.5,M,,0000*6F
541,502,423,24.437504,1005.796880
$GPGGA,061340.000,4334.7790,N,14200.0122,E,1,10,1.0,46.6,M,31.5,M,,0000*60
543,547,598,24.375000,1007.390624
$GPGGA,061342.000,4334.7790,N,14200.0122,E,1,10,1.0,46.6,M,31.5,M,,0000*62
518,567,607,24.437504,1007.390624
$GPGGA,061344.000,4334.7797,N,14200.0113,E,1,10,1.0,47.9,M,31.5,M,,0000*6F
506,542,604,24.500000,1006.578128
$GPGGA,061346.000,4334.7793,N,14200.0103,E,1,10,1.0,48.0,M,31.5,M,,0000*6E
519,565,589,24.500000,1006.187500
$GPGGA,061348.000,4334.7788,N,14200.0090,E,1,10,1.0,48.0,M,31.5,M,,0000*61
515,550,611,24.500000,1015.375000
$GPGGA,061350.000,4334.7784,N,14200.0077,E,1,10,1.0,48.1,M,31.5,M,,0000*6C
512,568,610,24.500000,1005.375000
$GPGGA,061352.000,4334.7777,N,14200.0062,E,1,10,1.0,48.2,M,31.5,M,,0000*65
553,601,574,24.500000,1005.765632
$GPGGA,061354.000,4334.7770,N,14200.0048,E,1,10,1.0,48.3,M,31.5,M,,0000*6D
533,543,604,24.562496,1004.562496
$GPGGA,061356.000,4334.7762,N,14200.0033,E,1,10,1.0,48.3,M,31.5,M,,0000*60
482,555,586,24.625008,1015.328128
$GPGGA,061357.000,4334.7759,N,14200.0027,E,1,10,1.0,48.2,M,31.5,M,,0000*6D
496,534,610,24.625008,1006.140624
$GPGGA,061359.000,4334.7750,N,14200.0012,E,1,10,1.0,48.4,M,31.5,M,,0000*6A
488,533,573,24.625008,1006.140624
$GPGGA,061401.000,4334.7742,N,14159.9996,E,1,10,1.0,48.2,M,31.5,M,,0000*66
491,548,611,24.625008,1006.140624
$GPGGA,061403.000,4334.7734,N,14159.9982,E,1,10,1.0,48.0,M,31.5,M,,0000*62
496,516,553,24.687504,1006.140624
$GPGGA,061405.000,4334.7727,N,14159.9970,E,1,10,1.0,48.1,M,31.5,M,,0000*6A
494,517,566,24.687504,1013.593744
$GPGGA,061407.000,4334.7721,N,14159.9957,E,1,10,1.0,48.1,M,31.5,M,,0000*6B
466,541,589,24.750000,1006.937504
$GPGGA,061409.000,4334.7714,N,14159.9940,E,1,10,1.0,48.3,M,31.5,M,,0000*67
489,567,585,24.750000,1006.546880
$GPGGA,061411.000,4334.7704,N,14159.9923,E,1,10,1.0,48.9,M,31.5,M,,0000*60
495,502,549,24.812496,1012.390624
$GPGGA,061413.000,4334.7695,N,14159.9908,E,1,10,1.0,49.2,M,31.5,M,,0000*68
454,494,573,24.937504,1012.750000
$GPGGA,061415.000,4334.7686,N,14159.9894,E,1,10,1.0,49.4,M,31.5,M,,0000*6E
495,530,561,24.937504,1004.921872
$GPGGA,061417.000,4334.7677,N,14159.9878,E,1,10,1.0,49.5,M,31.5,M,,0000*61
507,519,576,24.937504,1006.125000
$GPGGA,061419.000,4334.7666,N,14159.9864,E,1,10,1.0,49.5,M,31.5,M,,0000*62
471,517,572,25.000000,1006.500000
$GPGGA,061421.000,4334.7657,N,14159.9852,E,1,10,1.0,49.5,M,31.5,M,,0000*6E
481,537,592,25.000000,1006.125000
$GPGGA,061423.000,4334.7648,N,14159.9839,E,1,10,1.0,49.7,M,31.5,M,,0000*6D
492,554,594,25.000000,1007.718752
$GPGGA,061425.000,4334.7638,N,14159.9824,E,1,09,1.1,49.8,M,31.5,M,,0000*66
483,528,571,25.062500,1005.312504
$GPGGA,061427.000,4334.7627,N,14159.9813,E,1,10,1.0,50.1,M,31.5,M,,0000*66
461,470,585,25.125000,1006.500000
$GPGGA,061429.000,4334.7612,N,14159.9802,E,1,10,1.0,50.9,M,31.5,M,,0000*66
489,525,572,25.125000,1006.093750
$GPGGA,061431.000,4334.7599,N,14159.9790,E,1,10,1.0,51.3,M,31.5,M,,0000*60
501,521,576,25.187500,1006.906256
$GPGGA,061433.000,4334.7588,N,14159.9779,E,1,10,1.0,51.6,M,31.5,M,,0000*60
469,493,598,25.187500,1005.703120
$GPGGA,061435.000,4334.7581,N,14159.9768,E,1,10,1.0,51.7,M,31.5,M,,0000*6E
493,509,566,25.375000,1013.531248
$GPGGA,061437.000,4334.7579,N,14159.9755,E,1,10,1.0,51.3,M,31.5,M,,0000*61
475,523,577,25.437504,1012.718752
$GPGGA,061439.000,4334.7573,N,14159.9746,E,1,10,1.0,50.9,M,31.5,M,,0000*6C
511,526,577,25.375000,1006.859376
$GPGGA,061441.000,4334.7568,N,14159.9745,E,1,10,1.0,50.8,M,31.5,M,,0000*6B
464,527,571,25.437504,1006.484376
$GPGGA,061443.000,4334.7569,N,14159.9745,E,1,10,1.0,50.9,M,31.5,M,,0000*69
472,514,559,25.437504,1006.859376
$GPGGA,061445.000,4334.7569,N,14159.9745,E,1,08,1.1,50.9,M,31.5,M,,0000*67
466,528,595,25.437504,1007.671872
$GPGGA,061447.000,4334.7569,N,14159.9745,E,1,09,1.1,50.9,M,31.5,M,,0000*64
475,533,571,25.437504,1006.093750
$GPGGA,061449.000,4334.7569,N,14159.9745,E,1,09,1.1,50.9,M,31.5,M,,0000*6A
488,517,563,25.437504,1006.484376
$GPGGA,061451.000,4334.7569,N,14159.9745,E,1,08,1.1,50.9,M,31.5,M,,0000*62
496,492,551,25.500000,1007.296872
$GPGGA,061453.000,4334.7569,N,14159.9745,E,1,09,1.1,50.9,M,31.5,M,,0000*61
488,516,564,25.500000,1007.296872
