$GPGGA,050514.000,4334.7583,N,14159.9749,E,1,09,1.2,44.1,M,31.5,M,,0000*67
511,525,575,25.625008,1006.125000
$GPGGA,050516.000,4334.7583,N,14159.9749,E,1,09,1.2,44.1,M,31.5,M,,0000*65
510,525,576,25.625008,1004.921872
$GPGGA,050518.000,4334.7583,N,14159.9749,E,1,09,1.2,44.1,M,31.5,M,,0000*6B
510,524,576,25.625008,1006.125000
$GPGGA,050520.000,4334.7583,N,14159.9749,E,1,09,1.2,44.1,M,31.5,M,,0000*60
510,530,575,25.625008,1006.125000
$GPGGA,050522.000,4334.7583,N,14159.9749,E,1,09,1.2,44.1,M,31.5,M,,0000*62
510,524,576,25.625008,1005.734368
$GPGGA,050524.000,4334.7583,N,14159.9749,E,1,08,1.2,44.1,M,31.5,M,,0000*65
510,525,576,25.625008,1006.500000
$GPGGA,050526.000,4334.7583,N,14159.9749,E,1,09,1.2,44.1,M,31.5,M,,0000*66
509,525,577,25.625008,1004.921872
$GPGGA,050528.000,4334.7583,N,14159.9749,E,1,09,1.2,44.1,M,31.5,M,,0000*68
510,525,576,25.687504,1004.546880
$GPGGA,050530.000,4334.7583,N,14159.9749,E,1,09,1.2,44.1,M,31.5,M,,0000*61
509,526,577,25.625008,1006.125000
$GPGGA,050532.000,4334.7583,N,14159.9749,E,1,09,1.2,44.1,M,31.5,M,,0000*63
511,524,576,25.687504,1006.125000
$GPGGA,050534.000,4334.7583,N,14159.9749,E,1,08,1.2,44.1,M,31.5,M,,0000*64
510,525,575,25.687504,1006.500000
$GPGGA,050536.000,4334.7583,N,14159.9749,E,1,08,1.2,44.1,M,31.5,M,,0000*66
510,525,576,25.687504,1006.906256
$GPGGA,050538.000,4334.7583,N,14159.9749,E,1,08,1.2,44.1,M,31.5,M,,0000*68
510,524,576,25.687504,1006.125000
$GPGGA,050540.000,4334.7583,N,14159.9749,E,1,08,1.2,44.1,M,31.5,M,,0000*67
510,529,576,25.687504,1006.500000
$GPGGA,050542.000,4334.7583,N,14159.9749,E,1,08,1.2,44.1,M,31.5,M,,0000*65
510,525,576,25.750000,1006.500000
$GPGGA,050544.000,4334.7583,N,14159.9749,E,1,08,1.2,44.1,M,31.5,M,,0000*63
509,525,576,25.750000,1004.921872
$GPGGA,050546.000,4334.7583,N,14159.9749,E,1,09,1.2,44.1,M,31.5,M,,0000*60
510,525,576,25.687504,1006.125000
$GPGGA,050548.000,4334.7583,N,14159.9749,E,1,09,1.2,44.1,M,31.5,M,,0000*6E
510,525,576,25.750000,1006.500000
$GPGGA,050550.000,4334.7583,N,14159.9749,E,1,09,1.2,44.1,M,31.5,M,,0000*67
510,525,576,25.750000,1006.125000
$GPGGA,050552.000,4334.7583,N,14159.9749,E,1,09,1.2,44.1,M,31.5,M,,0000*65
509,525,576,25.750000,1005.703120
$GPGGA,050554.000,4334.7583,N,14159.9749,E,1,09,1.2,44.1,M,31.5,M,,0000*63
511,525,576,25.687504,1006.500000
$GPGGA,050556.000,4334.7583,N,14159.9749,E,1,09,1.2,44.1,M,31.5,M,,0000*61
510,522,576,25.812496,1004.921872
$GPGGA,050558.000,4334.7583,N,14159.9749,E,1,09,1.2,44.1,M,31.5,M,,0000*6F
510,525,576,25.812496,1006.125000
$GPGGA,050600.000,4334.7583,N,14159.9749,E,1,09,1.2,44.1,M,31.5,M,,0000*61
510,525,576,25.812496,1005.312504
$GPGGA,050602.000,4334.7583,N,14159.9749,E,1,09,1.2,44.1,M,31.5,M,,0000*63
510,524,576,25.812496,1006.906256
$GPGGA,050604.000,4334.7583,N,14159.9749,E,1,09,1.2,44.1,M,31.5,M,,0000*65
510,525,576,25.875008,1005.312504
$GPGGA,050606.000,4334.7583,N,14159.9749,E,1,09,1.2,44.1,M,31.5,M,,0000*67
511,524,576,25.812496,1005.703120
$GPGGA,050607.000,4334.7583,N,14159.9749,E,1,08,1.2,44.1,M,31.5,M,,0000*67
511,524,576,25.875008,1006.500000
$GPGGA,050609.000,4334.7583,N,14159.9749,E,1,09,1.2,44.1,M,31.5,M,,0000*68
510,529,576,25.875008,1006.500000
$GPGGA,050611.000,4334.7583,N,14159.9749,E,1,09,1.2,44.1,M,31.5,M,,0000*61
510,525,576,25.812496,1005.312504
$GPGGA,050613.000,4334.7583,N,14159.9749,E,1,09,1.2,44.1,M,31.5,M,,0000*63
510,525,576,25.875008,1006.906256
$GPGGA,050615.000,4334.7583,N,14159.9749,E,1,09,1.2,44.1,M,31.5,M,,0000*65
510,524,576,25.812496,1005.312504
$GPGGA,050617.000,4334.7583,N,14159.9749,E,1,09,1.2,44.1,M,31.5,M,,0000*67
510,525,576,25.812496,1006.500000
$GPGGA,050619.000,4334.7583,N,14159.9749,E,1,09,1.2,44.1,M,31.5,M,,0000*69
510,524,576,25.875008,1004.109376
$GPGGA,050621.000,4334.7583,N,14159.9749,E,1,09,1.2,44.1,M,31.5,M,,0000*62
510,525,576,25.937504,1006.500000
$GPGGA,050623.000,4334.7583,N,14159.9749,E,1,09,1.2,44.1,M,31.5,M,,0000*60
510,525,576,25.875008,1005.703120
$GPGGA,050625.000,4334.7583,N,14159.9749,E,1,09,1.2,44.1,M,31.5,M,,0000*66
510,525,576,25.937504,1006.500000
$GPGGA,050627.000,4334.7583,N,14159.9749,E,1,09,1.2,44.1,M,31.5,M,,0000*64
510,525,576,25.937504,1005.312504
$GPGGA,050629.000,4334.7583,N,14159.9749,E,1,09,1.2,44.1,M,31.5,M,,0000*6A
511,525,573,25.937504,1005.703120
$GPGGA,050631.000,4334.7583,N,14159.9749,E,1,09,1.2,44.1,M,31.5,M,,0000*63
510,525,576,25.937504,1005.312504
$GPGGA,050633.000,4334.7583,N,14159.9749,E,1,09,1.2,44.1,M,31.5,M,,0000*61
510,526,576,25.937504,1004.500000
$GPGGA,050635.000,4334.7583,N,14159.9749,E,1,10,1.1,44.1,M,31.5,M,,0000*6C
510,525,576,25.937504,1006.500000
$GPGGA,050637.000,4334.7583,N,14159.9749,E,1,10,1.1,44.1,M,31.5,M,,0000*6E
510,524,576,25.937504,1005.703120
$GPGGA,050639.000,4334.7583,N,14159.9749,E,1,10,1.1,44.1,M,31.5,M,,0000*60
510,524,576,26.000000,1007.296872
$GPGGA,050641.000,4334.7583,N,14159.9749,E,1,10,1.1,44.1,M,31.5,M,,0000*6F
510,524,576,25.937504,1004.109376
$GPGGA,050643.000,4334.7583,N,14159.9749,E,1,10,1.1,44.1,M,31.5,M,,0000*6D
510,525,576,26.000000,1006.906256
$GPGGA,050645.000,4334.7583,N,14159.9749,E,1,10,1.1,44.1,M,31.5,M,,0000*6B
510,524,575,26.000000,1005.703120
$GPGGA,050647.000,4334.7583,N,14159.9749,E,1,10,1.1,44.1,M,31.5,M,,0000*69
511,524,576,25.937504,1007.296872
$GPGGA,050649.000,4334.7583,N,14159.9749,E,1,10,1.1,44.1,M,31.5,M,,0000*67
510,525,576,26.000000,1005.703120
$GPGGA,050651.000,4334.7583,N,14159.9749,E,1,10,1.1,44.1,M,31.5,M,,0000*6E
510,525,576,26.000000,1006.500000
$GPGGA,050653.000,4334.7583,N,14159.9749,E,1,10,1.1,44.1,M,31.5,M,,0000*6C
510,525,576,26.000000,1005.312504
$GPGGA,050655.000,4334.7583,N,14159.9749,E,1,10,1.1,44.1,M,31.5,M,,0000*6A
511,524,576,26.062500,1007.296872
$GPGGA,050657.000,4334.7583,N,14159.9749,E,1,10,1.1,44.1,M,31.5,M,,0000*68
510,524,578,26.062500,1007.296872
$GPGGA,050659.000,4334.7583,N,14159.9749,E,1,10,1.1,44.1,M,31.5,M,,0000*66
514,524,575,26.062500,1006.484376
$GPGGA,050701.000,4334.7583,N,14159.9749,E,1,10,1.1,44.1,M,31.5,M,,0000*6A
510,524,576,26.062500,1005.312504
$GPGGA,050703.000,4334.7583,N,14159.9749,E,1,10,1.1,44.1,M,31.5,M,,0000*68
511,525,576,26.062500,1006.484376
$GPGGA,050705.000,4334.7583,N,14159.9749,E,1,10,1.1,44.1,M,31.5,M,,0000*6E
511,525,577,26.062500,1006.484376
$GPGGA,050707.000,4334.7583,N,14159.9749,E,1,10,1.1,44.1,M,31.5,M,,0000*6C
510,526,577,26.125000,1006.500000
$GPGGA,050709.000,4334.7583,N,14159.9749,E,1,10,1.1,44.1,M,31.5,M,,0000*62
510,524,576,26.062500,1006.906256
$GPGGA,050711.000,4334.7583,N,14159.9749,E,1,10,1.1,44.1,M,31.5,M,,0000*6B
511,522,574,26.125000,1005.312504
$GPGGA,050713.000,4334.7583,N,14159.9749,E,1,10,1.1,44.1,M,31.5,M,,0000*69
510,526,577,26.125000,1004.890624
$GPGGA,050715.000,4334.7583,N,14159.9749,E,1,10,1.1,44.1,M,31.5,M,,0000*6F
509,522,578,26.125000,1007.296872
$GPGGA,050717.000,4334.7583,N,14159.9749,E,1,10,1.1,44.1,M,31.5,M,,0000*6D
512,527,575,26.125000,1006.093750
$GPGGA,050719.000,4334.7583,N,14159.9749,E,1,10,1.1,44.1,M,31.5,M,,0000*63
510,524,576,26.125000,1005.703120
$GPGGA,050721.000,4334.7583,N,14159.9749,E,1,10,1.1,44.1,M,31.5,M,,0000*68
511,524,574,26.125000,1005.703120
$GPGGA,050723.000,4334.7583,N,14159.9749,E,1,10,1.1,44.1,M,31.5,M,,0000*6A
510,525,576,26.125000,1007.296872
$GPGGA,050725.000,4334.7583,N,14159.9749,E,1,10,1.1,44.1,M,31.5,M,,0000*6C
510,525,575,26.187500,1006.484376
$GPGGA,050727.000,4334.7583,N,14159.9749,E,1,10,1.1,44.1,M,31.5,M,,0000*6E
509,524,577,26.187500,1006.906256
$GPGGA,050729.000,4334.7583,N,14159.9749,E,1,10,1.1,44.1,M,31.5,M,,0000*60
512,524,575,26.125000,1006.093750
$GPGGA,050731.000,4334.7583,N,14159.9749,E,1,10,1.1,44.1,M,31.5,M,,0000*69
511,524,576,26.187500,1006.484376
$GPGGA,050733.000,4334.7583,N,14159.9749,E,1,10,1.1,44.1,M,31.5,M,,0000*6B
510,525,576,26.187500,1005.312504
$GPGGA,050735.000,4334.7583,N,14159.9749,E,1,10,1.1,44.1,M,31.5,M,,0000*6D
511,525,576,26.187500,1004.890624
$GPGGA,050737.000,4334.7583,N,14159.9749,E,1,10,1.1,44.1,M,31.5,M,,0000*6F
510,525,576,26.187500,1006.484376
$GPGGA,050739.000,4334.7583,N,14159.9749,E,1,10,1.1,44.1,M,31.5,M,,0000*61
510,529,576,26.187500,1005.703120
$GPGGA,050741.000,4334.7583,N,14159.9749,E,1,10,1.1,44.1,M,31.5,M,,0000*6E
510,525,575,26.250000,1005.281248
$GPGGA,050743.000,4334.7583,N,14159.9749,E,1,10,1.1,44.1,M,31.5,M,,0000*6C
510,525,576,26.187500,1006.093750
$GPGGA,050745.000,4334.7583,N,14159.9749,E,1,10,1.1,44.1,M,31.5,M,,0000*6A
510,525,576,26.250000,1006.484376
$GPGGA,050747.000,4334.7583,N,14159.9749,E,1,10,1.1,44.1,M,31.5,M,,0000*68
511,524,576,26.250000,1007.671872
$GPGGA,050749.000,4334.7583,N,14159.9749,E,1,10,1.1,44.1,M,31.5,M,,0000*66
510,525,576,26.250000,1005.281248
$GPGGA,050751.000,4334.7583,N,14159.9749,E,1,10,1.1,44.1,M,31.5,M,,0000*6F
510,525,576,26.250000,1005.281248
$GPGGA,050753.000,4334.7583,N,14159.9749,E,1,10,1.1,44.1,M,31.5,M,,0000*6D
510,525,576,26.312504,1004.890624
$GPGGA,050755.000,4334.7583,N,14159.9749,E,1,10,1.1,44.1,M,31.5,M,,0000*6B
510,524,576,26.312504,1006.484376
$GPGGA,050757.000,4334.7583,N,14159.9749,E,1,10,1.1,44.1,M,31.5,M,,0000*69
510,524,576,26.250000,1008.078126
$GPGGA,050759.000,4334.7583,N,14159.9749,E,1,10,1.1,44.1,M,31.5,M,,0000*67
511,525,576,26.312504,1006.484376
$GPGGA,050801.000,4334.7583,N,14159.9749,E,1,10,1.1,44.1,M,31.5,M,,0000*65
510,525,575,26.375000,1005.671872
$GPGGA,050803.000,4334.7583,N,14159.9749,E,1,10,1.1,44.1,M,31.5,M,,0000*67
510,525,577,26.250000,1005.281248
$GPGGA,050805.000,4334.7583,N,14159.9749,E,1,10,1.1,44.1,M,31.5,M,,0000*61
510,524,575,26.312504,1005.281248
$GPGGA,050807.000,4334.7583,N,14159.9749,E,1,09,1.6,44.1,M,31.5,M,,0000*6C
511,530,576,26.375000,1006.859376
$GPGGA,050809.000,4334.7583,N,14159.9749,E,1,10,1.1,44.1,M,31.5,M,,0000*6D
510,524,576,26.375000,1006.859376
$GPGGA,050811.000,4334.7583,N,14159.9749,E,1,10,1.1,44.1,M,31.5,M,,0000*64
510,524,576,26.375000,1006.859376
$GPGGA,050813.000,4334.7583,N,14159.9749,E,1,10,1.1,44.1,M,31.5,M,,0000*66
510,525,576,26.375000,1007.250000
$GPGGA,050815.000,4334.7583,N,14159.9749,E,1,10,1.1,44.1,M,31.5,M,,0000*60
511,528,578,26.375000,1006.484376
$GPGGA,050817.000,4334.7583,N,14159.9749,E,1,10,1.1,44.1,M,31.5,M,,0000*62
511,525,576,26.375000,1005.281248
$GPGGA,050819.000,4334.7583,N,14159.9749,E,1,10,1.1,44.1,M,31.5,M,,0000*6C
510,524,576,26.375000,1007.671872
$GPGGA,050821.000,4334.7583,N,14159.9749,E,1,10,1.1,44.1,M,31.5,M,,0000*67
510,524,576,26.375000,1005.671872
$GPGGA,050823.000,4334.7583,N,14159.9749,E,1,10,1.1,44.1,M,31.5,M,,0000*65
510,525,576,26.437504,1004.453128
$GPGGA,050825.000,4334.7583,N,14159.9749,E,1,10,1.1,44.1,M,31.5,M,,0000*63
506,526,577,26.437504,1005.671872
$GPGGA,050827.000,4334.7583,N,14159.9749,E,1,10,1.1,44.1,M,31.5,M,,0000*61
512,526,575,26.437504,1007.250000
$GPGGA,050829.000,4334.7583,N,14159.9749,E,1,10,1.1,44.1,M,31.5,M,,0000*6F
508,527,575,26.437504,1008.078126
$GPGGA,050831.000,4334.7583,N,14159.9749,E,1,10,1.1,44.1,M,31.5,M,,0000*66
511,525,575,26.437504,1005.671872
$GPGGA,050833.000,4334.7583,N,14159.9749,E,1,10,1.1,44.1,M,31.5,M,,0000*64
510,526,576,26.437504,1005.671872
$GPGGA,050835.000,4334.7583,N,14159.9749,E,1,10,1.1,44.1,M,31.5,M,,0000*62
510,524,575,26.500000,1005.671872
$GPGGA,050837.000,4334.7583,N,14159.9749,E,1,10,1.1,44.1,M,31.5,M,,0000*60
510,525,576,26.437504,1004.843744
$GPGGA,050839.000,4334.7583,N,14159.9749,E,1,10,1.1,44.1,M,31.5,M,,0000*6E
512,527,575,26.437504,1006.859376
$GPGGA,050841.000,4334.7583,N,14159.9749,E,1,09,1.1,44.1,M,31.5,M,,0000*69
510,524,575,26.500000,1005.671872
$GPGGA,050843.000,4334.7583,N,14159.9749,E,1,10,1.1,44.1,M,31.5,M,,0000*63
510,525,577,26.500000,1005.671872
$GPGGA,050845.000,4334.7583,N,14159.9749,E,1,10,1.1,44.1,M,31.5,M,,0000*65
510,524,576,26.500000,1005.671872
$GPGGA,050847.000,4334.7583,N,14159.9749,E,1,10,1.1,44.1,M,31.5,M,,0000*67
510,528,576,26.500000,1007.250000
$GPGGA,050849.000,4334.7583,N,14159.9749,E,1,10,1.1,44.1,M,31.5,M,,0000*69
510,526,576,26.500000,1008.078126
$GPGGA,050851.000,4334.7583,N,14159.9749,E,1,10,1.1,44.1,M,31.5,M,,0000*60
510,525,575,26.500000,1005.671872
$GPGGA,050853.000,4334.7583,N,14159.9749,E,1,10,1.1,44.1,M,31.5,M,,0000*62
510,524,576,26.562496,1006.046875
$GPGGA,050855.000,4334.7583,N,14159.9749,E,1,10,1.1,44.1,M,31.5,M,,0000*64
511,524,576,26.562496,1007.250000
$GPGGA,050857.000,4334.7583,N,14159.9749,E,1,10,1.1,44.1,M,31.5,M,,0000*66
510,525,580,26.562496,1004.843744
$GPGGA,050859.000,4334.7583,N,14159.9749,E,1,10,1.1,44.1,M,31.5,M,,0000*68
508,525,577,26.562496,1007.250000
$GPGGA,050901.000,4334.7583,N,14159.9749,E,1,10,1.1,44.1,M,31.5,M,,0000*64
509,525,575,26.625008,1004.843744
$GPGGA,050903.000,4334.7583,N,14159.9749,E,1,10,1.1,44.1,M,31.5,M,,0000*66
509,535,580,26.625008,1004.843744
$GPGGA,050905.000,4334.7583,N,14159.9749,E,1,10,1.1,44.1,M,31.5,M,,0000*60
509,529,577,26.625008,1006.046875
$GPGGA,050907.000,4334.7583,N,14159.9749,E,1,10,1.1,44.1,M,31.5,M,,0000*62
509,523,573,26.625008,1004.843744
$GPGGA,050909.000,4334.7583,N,14159.9749,E,1,10,1.1,44.1,M,31.5,M,,0000*6C
507,526,575,26.625008,1004.843744
$GPGGA,050911.000,4334.7583,N,14159.9749,E,1,10,1.1,44.1,M,31.5,M,,0000*65
509,526,577,26.625008,1004.843744
$GPGGA,050913.000,4334.7583,N,14159.9749,E,1,10,1.1,44.1,M,31.5,M,,0000*67
511,524,575,26.687504,1006.046875
$GPGGA,050915.000,4334.7583,N,14159.9749,E,1,10,1.1,44.1,M,31.5,M,,0000*61
510,527,575,26.687504,1004.843744
$GPGGA,050917.000,4334.7583,N,14159.9749,E,1,10,1.1,44.1,M,31.5,M,,0000*63
511,525,574,26.687504,1004.843744
$GPGGA,050919.000,4334.7583,N,14159.9749,E,1,10,1.1,44.1,M,31.5,M,,0000*6D
511,528,574,26.625008,1004.843744
$GPGGA,050921.000,4334.7583,N,14159.9749,E,1,10,1.1,44.1,M,31.5,M,,0000*66
513,524,575,26.625008,1004.843744
$GPGGA,050923.000,4334.7583,N,14159.9749,E,1,10,1.1,44.1,M,31.5,M,,0000*64
512,524,576,26.687504,1004.843744
$GPGGA,050925.000,4334.7583,N,14159.9749,E,1,10,1.1,44.1,M,31.5,M,,0000*62
513,523,577,26.687504,1004.843744
$GPGGA,050927.000,4334.7583,N,14159.9749,E,1,10,1.1,44.1,M,31.5,M,,0000*60
510,524,577,26.625008,1006.046875
$GPGGA,050929.000,4334.7583,N,14159.9749,E,1,10,1.1,44.1,M,31.5,M,,0000*6E
510,529,577,26.687504,1004.843744
$GPGGA,050931.000,4334.7583,N,14159.9749,E,1,10,1.1,44.1,M,31.5,M,,0000*67
510,525,575,26.687504,1004.843744
$GPGGA,050933.000,4334.7583,N,14159.9749,E,1,10,1.1,44.1,M,31.5,M,,0000*65
510,525,576,26.687504,1004.843744
$GPGGA,050935.000,4334.7583,N,14159.9749,E,1,10,1.1,44.1,M,31.5,M,,0000*63
508,525,575,26.750000,1004.843744
$GPGGA,050937.000,4334.7583,N,14159.9749,E,1,10,1.1,44.1,M,31.5,M,,0000*61
511,526,575,26.687504,1006.046875
$GPGGA,050939.000,4334.7583,N,14159.9749,E,1,10,1.1,44.1,M,31.5,M,,0000*6F
510,525,576,26.750000,1006.046875
$GPGGA,050941.000,4334.7583,N,14159.9749,E,1,10,1.1,44.1,M,31.5,M,,0000*60
511,528,573,26.687504,1007.250000
$GPGGA,050943.000,4334.7583,N,14159.9749,E,1,10,1.1,44.1,M,31.5,M,,0000*62
509,525,576,26.687504,1004.843744
$GPGGA,050945.000,4334.7583,N,14159.9749,E,1,10,1.1,44.1,M,31.5,M,,0000*64
512,525,575,26.687504,1004.843744
$GPGGA,050947.000,4334.7583,N,14159.9749,E,1,10,1.1,44.1,M,31.5,M,,0000*66
510,525,580,26.750000,1004.843744
$GPGGA,050949.000,4334.7583,N,14159.9749,E,1,10,1.1,44.1,M,31.5,M,,0000*68
509,526,576,26.750000,1006.046875
$GPGGA,050951.000,4334.7583,N,14159.9749,E,1,10,1.1,44.1,M,31.5,M,,0000*61
510,526,577,26.750000,1004.843744
$GPGGA,050953.000,4334.7583,N,14159.9749,E,1,10,1.1,44.1,M,31.5,M,,0000*63
511,526,576,26.750000,1004.843744
$GPGGA,050955.000,4334.7583,N,14159.9749,E,1,10,1.1,44.1,M,31.5,M,,0000*65
511,526,576,26.750000,1005.234376
$GPGGA,050957.000,4334.7583,N,14159.9749,E,1,10,1.1,44.1,M,31.5,M,,0000*67
509,525,577,26.750000,1004.843744
$GPGGA,050959.000,4334.7583,N,14159.9749,E,1,10,1.1,44.1,M,31.5,M,,0000*69
508,529,577,26.812496,1004.843744
$GPGGA,051001.000,4334.7583,N,14159.9749,E,1,10,1.1,44.1,M,31.5,M,,0000*6C
511,526,576,26.750000,1004.843744
$GPGGA,051003.000,4334.7583,N,14159.9749,E,1,10,1.1,44.1,M,31.5,M,,0000*6E
512,525,576,26.812496,1005.234376
$GPGGA,051005.000,4334.7583,N,14159.9749,E,1,10,1.1,44.1,M,31.5,M,,0000*68
511,523,576,26.812496,1005.234376
$GPGGA,051007.000,4334.7583,N,14159.9749,E,1,10,1.1,44.1,M,31.5,M,,0000*6A
510,525,576,26.812496,1004.843744
$GPGGA,051009.000,4334.7583,N,14159.9749,E,1,10,1.1,44.1,M,31.5,M,,0000*64
510,524,576,26.812496,1004.843744
$GPGGA,051011.000,4334.7583,N,14159.9749,E,1,10,1.1,44.1,M,31.5,M,,0000*6D
510,528,576,26.812496,1004.843744
$GPGGA,051013.000,4334.7583,N,14159.9749,E,1,10,1.1,44.1,M,31.5,M,,0000*6F
510,525,577,26.812496,1004.843744
$GPGGA,051015.000,4334.7583,N,14159.9749,E,1,10,1.1,44.1,M,31.5,M,,0000*69
509,526,576,26.812496,1004.843744
$GPGGA,051017.000,4334.7583,N,14159.9749,E,1,10,1.1,44.1,M,31.5,M,,0000*6B
511,525,575,26.875008,1004.843744
$GPGGA,051019.000,4334.7583,N,14159.9749,E,1,10,1.1,44.1,M,31.5,M,,0000*65
510,525,577,26.875008,1006.437504
$GPGGA,051021.000,4334.7583,N,14159.9749,E,1,10,1.1,44.1,M,31.5,M,,0000*6E
510,525,576,26.875008,1004.843744
$GPGGA,051023.000,4334.7583,N,14159.9749,E,1,10,1.1,44.1,M,31.5,M,,0000*6C
510,525,576,26.875008,1004.843744
$GPGGA,051025.000,4334.7583,N,14159.9749,E,1,10,1.1,44.1,M,31.5,M,,0000*6A
510,525,576,26.875008,1006.828128
$GPGGA,051027.000,4334.7583,N,14159.9749,E,1,10,1.1,44.1,M,31.5,M,,0000*68
511,525,575,26.875008,1005.625008
$GPGGA,051029.000,4334.7583,N,14159.9749,E,1,10,1.1,44.1,M,31.5,M,,0000*66
510,526,576,26.875008,1005.234376
$GPGGA,051031.000,4334.7583,N,14159.9749,E,1,11,0.9,44.1,M,31.5,M,,0000*67
511,525,576,26.875008,1005.234376
$GPGGA,051033.000,4334.7583,N,14159.9749,E,1,11,0.9,44.1,M,31.5,M,,0000*65
510,525,576,26.875008,1005.234376
$GPGGA,051035.000,4334.7583,N,14159.9749,E,1,11,0.9,44.1,M,31.5,M,,0000*63
510,525,576,26.875008,1004.843744
$GPGGA,051037.000,4334.7583,N,14159.9749,E,1,11,0.9,44.1,M,31.5,M,,0000*61
510,526,576,26.875008,1006.437504
$GPGGA,051039.000,4334.7583,N,14159.9749,E,1,11,0.9,44.1,M,31.5,M,,0000*6F
510,526,576,26.875008,1004.843744
$GPGGA,051041.000,4334.7583,N,14159.9749,E,1,11,0.9,44.1,M,31.5,M,,0000*60
512,525,575,26.875008,1004.843744
$GPGGA,051043.000,4334.7583,N,14159.9749,E,1,11,0.9,44.1,M,31.5,M,,0000*62
511,529,576,26.875008,1005.234376
$GPGGA,051045.000,4334.7583,N,14159.9749,E,1,11,0.9,44.1,M,31.5,M,,0000*64
510,525,576,26.937504,1004.843744
$GPGGA,051047.000,4334.7583,N,14159.9749,E,1,10,1.1,44.1,M,31.5,M,,0000*6E
510,525,574,26.937504,1006.046875
$GPGGA,051049.000,4334.7583,N,14159.9749,E,1,11,0.9,44.1,M,31.5,M,,0000*68
511,525,576,26.937504,1004.843744
$GPGGA,051051.000,4334.7583,N,14159.9749,E,1,11,0.9,44.1,M,31.5,M,,0000*61
510,526,576,26.937504,1005.234376
$GPGGA,051053.000,4334.7583,N,14159.9749,E,1,10,1.1,44.1,M,31.5,M,,0000*6B
511,522,575,26.937504,1005.234376
$GPGGA,051055.000,4334.7583,N,14159.9749,E,1,10,1.1,44.1,M,31.5,M,,0000*6D
513,523,575,26.937504,1004.843744
$GPGGA,051057.000,4334.7583,N,14159.9749,E,1,11,0.9,44.1,M,31.5,M,,0000*67
511,525,577,26.937504,1006.828128
$GPGGA,051059.000,4334.7583,N,14159.9749,E,1,10,1.1,44.1,M,31.5,M,,0000*61
509,525,577,26.937504,1004.031250
$GPGGA,051101.000,4334.7583,N,14159.9749,E,1,10,1.1,44.1,M,31.5,M,,0000*6D
509,525,577,27.000000,1005.625008
$GPGGA,051103.000,4334.7583,N,14159.9749,E,1,10,1.1,44.1,M,31.5,M,,0000*6F
510,525,576,27.000000,1005.625008
$GPGGA,051105.000,4334.7583,N,14159.9749,E,1,10,1.1,44.1,M,31.5,M,,0000*69
509,526,577,27.000000,1005.625008
$GPGGA,051107.000,4334.7583,N,14159.9749,E,1,10,1.1,44.1,M,31.5,M,,0000*6B
510,525,576,27.000000,1005.625008
$GPGGA,051109.000,4334.7583,N,14159.9749,E,1,10,1.1,44.1,M,31.5,M,,0000*65
510,525,576,27.000000,1004.843744
$GPGGA,051111.000,4334.7583,N,14159.9749,E,1,10,1.1,44.1,M,31.5,M,,0000*6C
510,526,576,27.000000,1005.625008
$GPGGA,051113.000,4334.7583,N,14159.9749,E,1,11,0.9,44.1,M,31.5,M,,0000*66
511,525,576,27.000000,1006.828128
$GPGGA,051115.000,4334.7583,N,14159.9749,E,1,11,0.9,44.1,M,31.5,M,,0000*60
511,525,576,27.062500,1006.000000
$GPGGA,051117.000,4334.7583,N,14159.9749,E,1,11,0.9,44.1,M,31.5,M,,0000*62
510,525,576,27.000000,1006.000000
$GPGGA,051119.000,4334.7583,N,14159.9749,E,1,11,0.9,44.1,M,31.5,M,,0000*6C
510,525,576,27.000000,1005.234376
$GPGGA,051121.000,4334.7583,N,14159.9749,E,1,11,0.9,44.1,M,31.5,M,,0000*67
510,526,576,27.062500,1006.828128
$GPGGA,051123.000,4334.7583,N,14159.9749,E,1,11,0.9,44.1,M,31.5,M,,0000*65
510,524,575,27.062500,1005.234376
$GPGGA,051125.000,4334.7583,N,14159.9749,E,1,11,0.9,44.1,M,31.5,M,,0000*63
510,525,576,27.062500,1006.000000
$GPGGA,051127.000,4334.7583,N,14159.9749,E,1,11,0.9,44.1,M,31.5,M,,0000*61
510,525,576,27.062500,1007.218752
$GPGGA,051129.000,4334.7583,N,14159.9749,E,1,11,0.9,44.1,M,31.5,M,,0000*6F
511,524,576,27.062500,1005.625008
$GPGGA,051131.000,4334.7583,N,14159.9749,E,1,11,0.9,44.1,M,31.5,M,,0000*66
510,525,576,27.125000,1005.625008
$GPGGA,051133.000,4334.7583,N,14159.9749,E,1,11,0.9,44.1,M,31.5,M,,0000*64
511,524,577,27.062500,1008.437504
$GPGGA,051135.000,4334.7583,N,14159.9749,E,1,11,0.9,44.1,M,31.5,M,,0000*62
510,525,577,27.125000,1005.625008
$GPGGA,051137.000,4334.7583,N,14159.9749,E,1,11,0.9,44.1,M,31.5,M,,0000*60
510,525,575,27.125000,1006.828128
$GPGGA,051139.000,4334.7583,N,14159.9749,E,1,11,0.9,44.1,M,31.5,M,,0000*6E
510,528,576,27.125000,1005.187500
$GPGGA,051141.000,4334.7583,N,14159.9749,E,1,11,0.9,44.1,M,31.5,M,,0000*61
510,528,576,27.125000,1004.421872
$GPGGA,051143.000,4334.7583,N,14159.9749,E,1,11,0.9,44.1,M,31.5,M,,0000*63
510,525,576,27.125000,1006.000000
$GPGGA,051145.000,4334.7583,N,14159.9749,E,1,11,0.9,44.1,M,31.5,M,,0000*65
510,525,577,27.187500,1005.625008
$GPGGA,051147.000,4334.7583,N,14159.9749,E,1,11,0.9,44.1,M,31.5,M,,0000*67
511,525,576,27.125000,1006.000000
$GPGGA,051149.000,4334.7583,N,14159.9749,E,1,11,0.9,44.1,M,31.5,M,,0000*69
510,528,576,27.125000,1006.000000
$GPGGA,051151.000,4334.7583,N,14159.9749,E,1,11,0.9,44.1,M,31.5,M,,0000*60
511,524,576,27.187500,1006.406248
$GPGGA,051153.000,4334.7583,N,14159.9749,E,1,11,0.9,44.1,M,31.5,M,,0000*62
510,525,576,27.187500,1006.406248
$GPGGA,051155.000,4334.7583,N,14159.9749,E,1,11,0.9,44.1,M,31.5,M,,0000*64
510,525,576,27.187500,1006.000000
$GPGGA,051157.000,4334.7583,N,14159.9749,E,1,11,0.9,44.1,M,31.5,M,,0000*66
511,525,576,27.187500,1005.187500
$GPGGA,051159.000,4334.7583,N,14159.9749,E,1,11,0.9,44.1,M,31.5,M,,0000*68
510,525,575,27.187500,1004.796880
$GPGGA,051201.000,4334.7583,N,14159.9749,E,1,11,0.9,44.1,M,31.5,M,,0000*66
510,526,577,27.187500,1005.625008
$GPGGA,051203.000,4334.7583,N,14159.9749,E,1,11,0.9,44.1,M,31.5,M,,0000*64
510,525,582,27.250000,1006.406248
$GPGGA,051205.000,4334.7583,N,14159.9749,E,1,11,0.9,44.1,M,31.5,M,,0000*62
510,525,576,27.250000,1006.000000
$GPGGA,051207.000,4334.7583,N,14159.9749,E,1,11,0.9,44.1,M,31.5,M,,0000*60
511,528,576,27.250000,1006.406248
$GPGGA,051209.000,4334.7583,N,14159.9749,E,1,11,0.9,44.1,M,31.5,M,,0000*6E
510,525,576,27.312504,1006.000000
$GPGGA,051211.000,4334.7583,N,14159.9749,E,1,11,0.9,44.1,M,31.5,M,,0000*67
511,525,576,27.312504,1005.187500
$GPGGA,051213.000,4334.7583,N,14159.9749,E,1,11,0.9,44.1,M,31.5,M,,0000*65
510,525,576,27.312504,1006.406248
$GPGGA,051215.000,4334.7583,N,14159.9749,E,1,11,0.9,44.1,M,31.5,M,,0000*63
510,525,580,27.312504,1003.984368
$GPGGA,051217.000,4334.7583,N,14159.9749,E,1,11,0.9,44.1,M,31.5,M,,0000*61
511,525,576,27.312504,1004.796880
$GPGGA,051219.000,4334.7583,N,14159.9749,E,1,11,0.9,44.1,M,31.5,M,,0000*6F
511,525,576,27.250000,1006.406248
$GPGGA,051221.000,4334.7583,N,14159.9749,E,1,11,0.9,44.1,M,31.5,M,,0000*64
510,525,575,27.312504,1006.000000
$GPGGA,051223.000,4334.7583,N,14159.9749,E,1,11,0.9,44.1,M,31.5,M,,0000*66
510,525,576,27.312504,1005.187500
$GPGGA,051225.000,4334.7583,N,14159.9749,E,1,11,0.9,44.1,M,31.5,M,,0000*60
510,525,576,27.312504,1006.406248
$GPGGA,051227.000,4334.7583,N,14159.9749,E,1,11,0.9,44.1,M,31.5,M,,0000*62
510,524,576,27.312504,1006.000000
$GPGGA,051229.000,4334.7583,N,14159.9749,E,1,11,0.9,44.1,M,31.5,M,,0000*6C
510,525,576,27.312504,1006.406248
$GPGGA,051231.000,4334.7583,N,14159.9749,E,1,11,0.9,44.1,M,31.5,M,,0000*65
511,525,576,27.375000,1005.187500
$GPGGA,051233.000,4334.7583,N,14159.9749,E,1,11,0.9,44.1,M,31.5,M,,0000*67
510,524,576,27.375000,1005.187500
$GPGGA,051235.000,4334.7583,N,14159.9749,E,1,11,0.9,44.1,M,31.5,M,,0000*61
511,525,576,27.375000,1005.187500
$GPGGA,051237.000,4334.7583,N,14159.9749,E,1,11,0.9,44.1,M,31.5,M,,0000*63
510,525,577,27.375000,1005.187500
$GPGGA,051239.000,4334.7583,N,14159.9749,E,1,11,0.9,44.1,M,31.5,M,,0000*6D
510,525,576,27.437504,1006.406248
$GPGGA,051241.000,4334.7583,N,14159.9749,E,1,11,0.9,44.1,M,31.5,M,,0000*62
510,524,576,27.375000,1005.578128
$GPGGA,051243.000,4334.7583,N,14159.9749,E,1,11,0.9,44.1,M,31.5,M,,0000*60
510,524,576,27.437504,1006.406248
$GPGGA,051245.000,4334.7583,N,14159.9749,E,1,11,0.9,44.1,M,31.5,M,,0000*66
510,525,576,27.437504,1005.187500
$GPGGA,051247.000,4334.7583,N,14159.9749,E,1,11,0.9,44.1,M,31.5,M,,0000*64
511,525,576,27.437504,1006.781248
$GPGGA,051249.000,4334.7583,N,14159.9749,E,1,11,0.9,44.1,M,31.5,M,,0000*6A
511,529,576,27.437504,1006.406248
$GPGGA,051251.000,4334.7583,N,14159.9749,E,1,11,0.9,44.1,M,31.5,M,,0000*63
510,525,576,27.437504,1005.578128
$GPGGA,051253.000,4334.7583,N,14159.9749,E,1,11,0.9,44.1,M,31.5,M,,0000*61
510,525,577,27.500000,1006.781248
$GPGGA,051255.000,4334.7583,N,14159.9749,E,1,11,0.9,44.1,M,31.5,M,,0000*67
510,525,576,27.500000,1006.406248
$GPGGA,051257.000,4334.7583,N,14159.9749,E,1,11,0.9,44.1,M,31.5,M,,0000*65
510,525,576,27.500000,1006.781248
$GPGGA,051259.000,4334.7583,N,14159.9749,E,1,11,0.9,44.1,M,31.5,M,,0000*6B
510,525,578,27.500000,1005.187500
$GPGGA,051301.000,4334.7583,N,14159.9749,E,1,11,0.9,44.1,M,31.5,M,,0000*67
511,525,576,27.500000,1005.187500
$GPGGA,051303.000,4334.7583,N,14159.9749,E,1,11,0.9,44.1,M,31.5,M,,0000*65
511,524,576,27.500000,1006.406248
$GPGGA,051305.000,4334.7583,N,14159.9749,E,1,11,0.9,44.1,M,31.5,M,,0000*63
510,525,576,27.500000,1005.968752
$GPGGA,051307.000,4334.7583,N,14159.9749,E,1,11,0.9,44.1,M,31.5,M,,0000*61
511,525,576,27.562496,1005.187500
$GPGGA,051309.000,4334.7583,N,14159.9749,E,1,11,0.9,44.1,M,31.5,M,,0000*6F
511,525,576,27.562496,1005.187500
$GPGGA,051311.000,4334.7583,N,14159.9749,E,1,11,0.9,44.1,M,31.5,M,,0000*66
510,525,576,27.562496,1003.984368
$GPGGA,051313.000,4334.7583,N,14159.9749,E,1,11,0.9,44.1,M,31.5,M,,0000*64
511,525,576,27.562496,1004.375000
$GPGGA,051315.000,4334.7583,N,14159.9749,E,1,11,0.9,44.1,M,31.5,M,,0000*62
510,526,576,27.625008,1004.375000
$GPGGA,051317.000,4334.7583,N,14159.9749,E,1,11,0.9,44.1,M,31.5,M,,0000*60
510,526,576,27.625008,1003.546880
$GPGGA,051319.000,4334.7583,N,14159.9749,E,1,11,0.9,44.1,M,31.5,M,,0000*6E
511,524,577,27.625008,1004.765632
$GPGGA,051321.000,4334.7583,N,14159.9749,E,1,11,0.9,44.1,M,31.5,M,,0000*65
511,525,576,27.625008,1005.968752
$GPGGA,051323.000,4334.7583,N,14159.9749,E,1,11,0.9,44.1,M,31.5,M,,0000*67
510,529,577,27.625008,1004.375000
$GPGGA,051325.000,4334.7583,N,14159.9749,E,1,11,0.9,44.1,M,31.5,M,,0000*61
511,525,576,27.687504,1004.765632
$GPGGA,051327.000,4334.7583,N,14159.9749,E,1,11,0.9,44.1,M,31.5,M,,0000*63
511,525,576,27.687504,1005.968752
$GPGGA,051329.000,4334.7583,N,14159.9749,E,1,11,0.9,44.1,M,31.5,M,,0000*6D
510,524,576,27.687504,1004.375000
$GPGGA,051331.000,4334.7583,N,14159.9749,E,1,11,0.9,44.1,M,31.5,M,,0000*64
510,524,577,27.687504,1004.765632
$GPGGA,051333.000,4334.7583,N,14159.9749,E,1,11,0.9,44.1,M,31.5,M,,0000*66
510,525,576,27.687504,1005.140624
$GPGGA,051335.000,4334.7583,N,14159.9749,E,1,11,0.9,44.1,M,31.5,M,,0000*60
510,524,576,27.687504,1005.140624
$GPGGA,051337.000,4334.7583,N,14159.9749,E,1,11,0.9,44.1,M,31.5,M,,0000*62
510,524,576,27.750000,1007.562496
$GPGGA,051339.000,4334.7583,N,14159.9749,E,1,11,0.9,44.1,M,31.5,M,,0000*6C
510,525,577,27.687504,1003.921872
$GPGGA,051341.000,4334.7583,N,14159.9749,E,1,11,0.9,44.1,M,31.5,M,,0000*63
512,525,576,27.750000,1003.921872
$GPGGA,051343.000,4334.7583,N,14159.9749,E,1,11,0.9,44.1,M,31.5,M,,0000*61
510,525,577,27.750000,1005.968752
$GPGGA,051345.000,4334.7583,N,14159.9749,E,1,11,0.9,44.1,M,31.5,M,,0000*67
511,525,576,27.812496,1006.343752
$GPGGA,051347.000,4334.7583,N,14159.9749,E,1,11,0.9,44.1,M,31.5,M,,0000*65
510,524,576,27.812496,1005.968752
$GPGGA,051349.000,4334.7583,N,14159.9749,E,1,11,0.9,44.1,M,31.5,M,,0000*6B
511,525,576,27.812496,1006.343752
$GPGGA,051351.000,4334.7583,N,14159.9749,E,1,11,0.9,44.1,M,31.5,M,,0000*62
511,525,576,27.875008,1005.140624
$GPGGA,051353.000,4334.7583,N,14159.9749,E,1,11,0.9,44.1,M,31.5,M,,0000*60
511,525,576,27.812496,1004.765632
$GPGGA,051355.000,4334.7583,N,14159.9749,E,1,11,0.9,44.1,M,31.5,M,,0000*66
511,525,576,27.875008,1005.531248
$GPGGA,051357.000,4334.7583,N,14159.9749,E,1,11,0.9,44.1,M,31.5,M,,0000*64
511,528,576,27.875008,1004.765632
$GPGGA,051359.000,4334.7583,N,14159.9749,E,1,11,0.9,44.1,M,31.5,M,,0000*6A
511,525,576,27.875008,1005.140624
$GPGGA,051401.000,4334.7583,N,14159.9749,E,1,11,0.9,44.1,M,31.5,M,,0000*60
510,525,576,27.875008,1005.531248
$GPGGA,051403.000,4334.7583,N,14159.9749,E,1,11,0.9,44.1,M,31.5,M,,0000*62
510,524,576,27.875008,1005.531248
$GPGGA,051405.000,4334.7583,N,14159.9749,E,1,11,0.9,44.1,M,31.5,M,,0000*64
511,524,576,27.937504,1005.531248
$GPGGA,051407.000,4334.7583,N,14159.9749,E,1,11,0.9,44.1,M,31.5,M,,0000*66
510,525,576,27.937504,1006.734368
$GPGGA,051409.000,4334.7583,N,14159.9749,E,1,11,0.9,44.1,M,31.5,M,,0000*68
510,525,576,27.937504,1005.531248
$GPGGA,051411.000,4334.7583,N,14159.9749,E,1,11,0.9,44.1,M,31.5,M,,0000*61
510,525,576,27.937504,1005.531248
$GPGGA,051413.000,4334.7583,N,14159.9749,E,1,11,0.9,44.1,M,31.5,M,,0000*63
510,525,576,28.000000,1005.531248
$GPGGA,051415.000,4334.7583,N,14159.9749,E,1,11,0.9,44.1,M,31.5,M,,0000*65
510,525,576,28.000000,1005.140624
$GPGGA,051417.000,4334.7583,N,14159.9749,E,1,11,0.9,44.1,M,31.5,M,,0000*67
510,525,576,28.000000,1004.328128
$GPGGA,051419.000,4334.7583,N,14159.9749,E,1,11,0.9,44.1,M,31.5,M,,0000*69
511,524,576,28.062500,1004.328128
$GPGGA,051421.000,4334.7583,N,14159.9749,E,1,11,0.9,44.1,M,31.5,M,,0000*62
510,525,576,28.000000,1004.328128
$GPGGA,051423.000,4334.7583,N,14159.9749,E,1,11,0.9,44.1,M,31.5,M,,0000*60
510,524,577,28.062500,1005.531248
$GPGGA,051425.000,4334.7583,N,14159.9749,E,1,11,0.9,44.1,M,31.5,M,,0000*66
510,524,576,28.062500,1004.328128
$GPGGA,051427.000,4334.7583,N,14159.9749,E,1,11,0.9,44.1,M,31.5,M,,0000*64
510,525,577,28.062500,1004.718752
$GPGGA,051429.000,4334.7583,N,14159.9749,E,1,11,0.9,44.1,M,31.5,M,,0000*6A
511,524,576,28.125000,1005.140624
$GPGGA,051431.000,4334.7583,N,14159.9749,E,1,11,0.9,44.1,M,31.5,M,,0000*63
511,525,576,28.125000,1005.531248
$GPGGA,051433.000,4334.7583,N,14159.9749,E,1,11,0.9,44.1,M,31.5,M,,0000*61
511,524,577,28.125000,1004.328128
$GPGGA,051435.000,4334.7583,N,14159.9749,E,1,11,0.9,44.1,M,31.5,M,,0000*67
511,525,576,28.187500,1005.531248
$GPGGA,051437.000,4334.7583,N,14159.9749,E,1,11,0.9,44.1,M,31.5,M,,0000*65
510,525,576,28.187500,1005.921872
$GPGGA,051439.000,4334.7583,N,14159.9749,E,1,11,0.9,44.1,M,31.5,M,,0000*6B
511,524,576,28.187500,1005.531248
$GPGGA,051441.000,4334.7583,N,14159.9749,E,1,11,0.9,44.1,M,31.5,M,,0000*64
510,525,576,28.187500,1005.531248
$GPGGA,051443.000,4334.7583,N,14159.9749,E,1,11,0.9,44.1,M,31.5,M,,0000*66
511,524,576,28.250000,1004.328128
$GPGGA,051445.000,4334.7583,N,14159.9749,E,1,11,0.9,44.1,M,31.5,M,,0000*60
511,523,576,28.250000,1004.328128
$GPGGA,051447.000,4334.7583,N,14159.9749,E,1,11,0.9,44.1,M,31.5,M,,0000*62
511,524,577,28.250000,1005.531248
$GPGGA,051449.000,4334.7583,N,14159.9749,E,1,11,0.9,44.1,M,31.5,M,,0000*6C
512,523,577,28.250000,1004.718752
$GPGGA,051451.000,4334.7583,N,14159.9749,E,1,11,0.9,44.1,M,31.5,M,,0000*65
510,527,577,28.250000,1005.093750
$GPGGA,051453.000,4334.7583,N,14159.9749,E,1,11,0.9,44.1,M,31.5,M,,0000*67
511,524,577,28.250000,1004.328128
$GPGGA,051455.000,4334.7583,N,14159.9749,E,1,11,0.9,44.1,M,31.5,M,,0000*61
511,524,576,28.312504,1005.921872
$GPGGA,051457.000,4334.7583,N,14159.9749,E,1,11,0.9,44.1,M,31.5,M,,0000*63
510,525,576,28.312504,1005.921872
$GPGGA,051459.000,4334.7583,N,14159.9749,E,1,11,0.9,44.1,M,31.5,M,,0000*6D
510,525,576,28.312504,1004.718752
$GPGGA,051501.000,4334.7583,N,14159.9749,E,1,11,0.9,44.1,M,31.5,M,,0000*61
511,525,576,28.312504,1005.093750
$GPGGA,051503.000,4334.7583,N,14159.9749,E,1,11,0.9,44.1,M,31.5,M,,0000*63
511,525,576,28.375000,1005.484376
$GPGGA,051505.000,4334.7583,N,14159.9749,E,1,11,0.9,44.1,M,31.5,M,,0000*65
510,525,576,28.375000,1004.718752
$GPGGA,051507.000,4334.7583,N,14159.9749,E,1,11,0.9,44.1,M,31.5,M,,0000*67
510,525,576,28.375000,1004.328128
$GPGGA,051509.000,4334.7583,N,14159.9749,E,1,11,0.9,44.1,M,31.5,M,,0000*69
510,525,576,28.437504,1005.093750
$GPGGA,051511.000,4334.7583,N,14159.9749,E,1,11,0.9,44.1,M,31.5,M,,0000*60
510,525,577,28.437504,1006.703120
$GPGGA,051513.000,4334.7583,N,14159.9749,E,1,11,0.9,44.1,M,31.5,M,,0000*62
511,524,577,28.437504,1005.093750
$GPGGA,051515.000,4334.7583,N,14159.9749,E,1,11,0.9,44.1,M,31.5,M,,0000*64
511,524,576,28.437504,1006.312504
$GPGGA,051517.000,4334.7583,N,14159.9749,E,1,11,0.9,44.1,M,31.5,M,,0000*66
509,526,577,28.437504,1005.093750
$GPGGA,051519.000,4334.7583,N,14159.9749,E,1,11,0.9,44.1,M,31.5,M,,0000*68
511,524,577,28.500000,1005.093750
$GPGGA,051521.000,4334.7583,N,14159.9749,E,1,11,0.9,44.1,M,31.5,M,,0000*63
511,524,576,28.437504,1006.312504
$GPGGA,051523.000,4334.7583,N,14159.9749,E,1,11,0.9,44.1,M,31.5,M,,0000*61
510,524,576,28.500000,1006.703120
$GPGGA,051525.000,4334.7583,N,14159.9749,E,1,11,0.9,44.1,M,31.5,M,,0000*67
511,524,576,28.500000,1005.093750
$GPGGA,051527.000,4334.7583,N,14159.9749,E,1,11,0.9,44.1,M,31.5,M,,0000*65
511,525,576,28.562496,1006.312504
$GPGGA,051529.000,4334.7583,N,14159.9749,E,1,11,0.9,44.1,M,31.5,M,,0000*6B
510,525,578,28.562496,1005.484376
$GPGGA,051531.000,4334.7583,N,14159.9749,E,1,11,0.9,44.1,M,31.5,M,,0000*62
511,524,579,28.562496,1006.703120
$GPGGA,051533.000,4334.7583,N,14159.9749,E,1,11,0.9,44.1,M,31.5,M,,0000*60
508,526,578,28.562496,1004.718752
$GPGGA,051535.000,4334.7583,N,14159.9749,E,1,11,0.9,44.1,M,31.5,M,,0000*66
510,525,577,28.562496,1005.093750
$GPGGA,051537.000,4334.7583,N,14159.9749,E,1,11,0.9,44.1,M,31.5,M,,0000*64
511,524,576,28.625008,1005.484376
$GPGGA,051539.000,4334.7583,N,14159.9749,E,1,11,0.9,44.1,M,31.5,M,,0000*6A
511,525,576,28.625008,1004.265624
$GPGGA,051541.000,4334.7583,N,14159.9749,E,1,11,0.9,44.1,M,31.5,M,,0000*65
511,525,577,28.625008,1005.875008
$GPGGA,051543.000,4334.7583,N,14159.9749,E,1,11,0.9,44.1,M,31.5,M,,0000*67
511,525,576,28.625008,1004.265624
$GPGGA,051545.000,4334.7583,N,14159.9749,E,1,11,0.9,44.1,M,31.5,M,,0000*61
517,524,573,28.687504,1005.484376
$GPGGA,051547.000,4334.7583,N,14159.9749,E,1,11,0.9,44.1,M,31.5,M,,0000*63
511,525,576,28.687504,1004.265624
$GPGGA,051549.000,4334.7583,N,14159.9749,E,1,11,0.9,44.1,M,31.5,M,,0000*6D
511,524,576,28.687504,1005.484376
$GPGGA,051551.000,4334.7583,N,14159.9749,E,1,11,0.9,44.1,M,31.5,M,,0000*64
511,529,577,28.750000,1004.265624
$GPGGA,051553.000,4334.7583,N,14159.9749,E,1,11,0.9,44.1,M,31.5,M,,0000*66
511,524,576,28.687504,1004.265624
$GPGGA,051555.000,4334.7583,N,14159.9749,E,1,11,0.9,44.1,M,31.5,M,,0000*60
510,525,576,28.687504,1006.703120
$GPGGA,051557.000,4334.7583,N,14159.9749,E,1,11,0.9,44.1,M,31.5,M,,0000*62
512,529,577,28.750000,1005.484376
$GPGGA,051559.000,4334.7583,N,14159.9749,E,1,11,0.9,44.1,M,31.5,M,,0000*6C
511,524,577,28.750000,1005.875008
$GPGGA,051601.000,4334.7583,N,14159.9749,E,1,11,0.9,44.1,M,31.5,M,,0000*62
511,525,577,28.750000,1004.656256
$GPGGA,051603.000,4334.7583,N,14159.9749,E,1,11,0.9,44.1,M,31.5,M,,0000*60
511,525,577,28.812496,1006.703120
$GPGGA,051605.000,4334.7583,N,14159.9749,E,1,11,0.9,44.1,M,31.5,M,,0000*66
511,525,576,28.875008,1005.875008
$GPGGA,051607.000,4334.7583,N,14159.9749,E,1,11,0.9,44.1,M,31.5,M,,0000*64
510,525,576,28.812496,1004.656256
$GPGGA,051609.000,4334.7583,N,14159.9749,E,1,11,0.9,44.1,M,31.5,M,,0000*6A
510,524,577,28.875008,1004.656256
$GPGGA,051611.000,4334.7583,N,14159.9749,E,1,11,0.9,44.1,M,31.5,M,,0000*63
510,525,577,28.875008,1004.656256
$GPGGA,051613.000,4334.7583,N,14159.9749,E,1,11,0.9,44.1,M,31.5,M,,0000*61
510,525,576,28.875008,1005.875008
$GPGGA,051615.000,4334.7583,N,14159.9749,E,1,11,0.9,44.1,M,31.5,M,,0000*67
511,525,576,28.937504,1004.656256
$GPGGA,051617.000,4334.7583,N,14159.9749,E,1,11,0.9,44.1,M,31.5,M,,0000*65
510,525,577,28.937504,1004.656256
$GPGGA,051619.000,4334.7583,N,14159.9749,E,1,11,0.9,44.1,M,31.5,M,,0000*6B
511,525,576,28.937504,1004.656256
$GPGGA,051621.000,4334.7583,N,14159.9749,E,1,11,0.9,44.1,M,31.5,M,,0000*60
510,525,577,28.937504,1006.250000
$GPGGA,051623.000,4334.7583,N,14159.9749,E,1,11,0.9,44.1,M,31.5,M,,0000*62
512,525,576,28.937504,1005.437504
$GPGGA,051625.000,4334.7583,N,14159.9749,E,1,11,0.9,44.1,M,31.5,M,,0000*64
510,522,576,29.000000,1005.031250
$GPGGA,051627.000,4334.7583,N,14159.9749,E,1,11,0.9,44.1,M,31.5,M,,0000*66
510,525,577,29.000000,1004.656256
$GPGGA,051629.000,4334.7583,N,14159.9749,E,1,11,0.9,44.1,M,31.5,M,,0000*68
510,525,576,29.062500,1005.031250
$GPGGA,051631.000,4334.7583,N,14159.9749,E,1,11,0.9,44.1,M,31.5,M,,0000*61
511,524,575,29.000000,1005.437504
$GPGGA,051633.000,4334.7583,N,14159.9749,E,1,11,0.9,44.1,M,31.5,M,,0000*63
511,525,576,29.062500,1005.437504
$GPGGA,051635.000,4334.7583,N,14159.9749,E,1,11,0.9,44.1,M,31.5,M,,0000*65
510,524,576,29.062500,1005.437504
$GPGGA,051637.000,4334.7583,N,14159.9749,E,1,11,0.9,44.1,M,31.5,M,,0000*67
511,524,576,29.125000,1005.031250
$GPGGA,051639.000,4334.7583,N,14159.9749,E,1,11,0.9,44.1,M,31.5,M,,0000*69
511,525,577,29.062500,1005.031250
$GPGGA,051641.000,4334.7583,N,14159.9749,E,1,11,0.9,44.1,M,31.5,M,,0000*66
510,524,576,29.125000,1005.031250
$GPGGA,051643.000,4334.7583,N,14159.9749,E,1,10,0.9,44.1,M,31.5,M,,0000*65
511,525,576,29.125000,1006.250000
$GPGGA,051645.000,4334.7583,N,14159.9749,E,1,11,0.9,44.1,M,31.5,M,,0000*62
510,525,576,29.125000,1005.812496
$GPGGA,051647.000,4334.7583,N,14159.9749,E,1,11,0.9,44.1,M,31.5,M,,0000*60
511,529,576,29.125000,1005.812496
$GPGGA,051649.000,4334.7583,N,14159.9749,E,1,11,0.9,44.1,M,31.5,M,,0000*6E
509,524,576,29.125000,1006.640624
$GPGGA,051651.000,4334.7583,N,14159.9749,E,1,11,0.9,44.1,M,31.5,M,,0000*67
511,525,576,29.187500,1005.437504
$GPGGA,051653.000,4334.7583,N,14159.9749,E,1,11,0.9,44.1,M,31.5,M,,0000*65
511,524,576,29.187500,1006.640624
$GPGGA,051655.000,4334.7583,N,14159.9749,E,1,11,0.9,44.1,M,31.5,M,,0000*63
512,526,575,29.187500,1005.437504
$GPGGA,051657.000,4334.7583,N,14159.9749,E,1,11,0.9,44.1,M,31.5,M,,0000*61
511,525,577,29.187500,1005.437504
$GPGGA,051659.000,4334.7583,N,14159.9749,E,1,11,0.9,44.1,M,31.5,M,,0000*6F
510,525,574,29.250000,1006.640624
$GPGGA,051701.000,4334.7583,N,14159.9749,E,1,11,0.9,44.1,M,31.5,M,,0000*63
511,524,576,29.187500,1005.437504
$GPGGA,051703.000,4334.7583,N,14159.9749,E,1,11,0.9,44.1,M,31.5,M,,0000*61
511,524,577,29.250000,1004.593744
$GPGGA,051705.000,4334.7583,N,14159.9749,E,1,11,0.9,44.1,M,31.5,M,,0000*67
511,524,576,29.250000,1005.437504
$GPGGA,051707.000,4334.7583,N,14159.9749,E,1,11,0.9,44.1,M,31.5,M,,0000*65
511,525,577,29.250000,1005.812496
$GPGGA,051709.000,4334.7583,N,14159.9749,E,1,11,0.9,44.1,M,31.5,M,,0000*6B
511,524,577,29.250000,1005.812496
$GPGGA,051711.000,4334.7583,N,14159.9749,E,1,11,0.9,44.1,M,31.5,M,,0000*62
511,524,576,29.250000,1005.812496
$GPGGA,051713.000,4334.7583,N,14159.9749,E,1,11,0.9,44.1,M,31.5,M,,0000*60
511,524,576,29.250000,1005.812496
$GPGGA,051715.000,4334.7583,N,14159.9749,E,1,11,0.9,44.1,M,31.5,M,,0000*66
511,525,577,29.312504,1005.437504
$GPGGA,051717.000,4334.7583,N,14159.9749,E,1,11,0.9,44.1,M,31.5,M,,0000*64
512,524,576,29.312504,1007.046875
$GPGGA,051719.000,4334.7583,N,14159.9749,E,1,11,0.9,44.1,M,31.5,M,,0000*6A
511,525,576,29.312504,1005.812496
$GPGGA,051721.000,4334.7583,N,14159.9749,E,1,11,0.9,44.1,M,31.5,M,,0000*61
510,524,576,29.312504,1005.812496
$GPGGA,051723.000,4334.7583,N,14159.9749,E,1,11,0.9,44.1,M,31.5,M,,0000*63
511,524,576,29.312504,1004.593744
$GPGGA,051725.000,4334.7583,N,14159.9749,E,1,11,0.9,44.1,M,31.5,M,,0000*65
511,530,577,29.375000,1005.812496
$GPGGA,051727.000,4334.7583,N,14159.9749,E,1,11,0.9,44.1,M,31.5,M,,0000*67
511,524,577,29.375000,1005.812496
$GPGGA,051729.000,4334.7583,N,14159.9749,E,1,10,1.0,44.1,M,31.5,M,,0000*60
515,520,577,29.375000,1004.593744
$GPGGA,051731.000,4334.7583,N,14159.9749,E,1,11,0.9,44.1,M,31.5,M,,0000*60
510,526,576,29.375000,1004.968752
$GPGGA,051733.000,4334.7583,N,14159.9749,E,1,11,0.9,44.1,M,31.5,M,,0000*62
511,524,576,29.375000,1004.593744
$GPGGA,051735.000,4334.7583,N,14159.9749,E,1,11,0.9,44.1,M,31.5,M,,0000*64
510,525,577,29.375000,1006.203124
$GPGGA,051737.000,4334.7583,N,14159.9749,E,1,11,0.9,44.1,M,31.5,M,,0000*66
511,524,576,29.437504,1006.203124
$GPGGA,051739.000,4334.7583,N,14159.9749,E,1,11,0.9,44.1,M,31.5,M,,0000*68
510,526,576,29.437504,1005.437504
$GPGGA,051741.000,4334.7583,N,14159.9749,E,1,11,0.9,44.1,M,31.5,M,,0000*67
511,525,576,29.437504,1004.593744
$GPGGA,051743.000,4334.7583,N,14159.9749,E,1,11,0.9,44.1,M,31.5,M,,0000*65
511,524,576,29.437504,1006.203124
$GPGGA,051745.000,4334.7583,N,14159.9749,E,1,11,0.9,44.1,M,31.5,M,,0000*63
511,525,577,29.437504,1005.812496
$GPGGA,051747.000,4334.7583,N,14159.9749,E,1,11,0.9,44.1,M,31.5,M,,0000*61
510,526,577,29.500000,1004.968752
$GPGGA,051749.000,4334.7583,N,14159.9749,E,1,11,0.9,44.1,M,31.5,M,,0000*6F
511,525,577,29.500000,1006.203124
$GPGGA,051751.000,4334.7583,N,14159.9749,E,1,11,0.9,44.1,M,31.5,M,,0000*66
511,525,577,29.500000,1005.812496
$GPGGA,051753.000,4334.7583,N,14159.9749,E,1,11,0.9,44.1,M,31.5,M,,0000*64
511,524,577,29.500000,1005.812496
$GPGGA,051755.000,4334.7583,N,14159.9749,E,1,11,0.9,44.1,M,31.5,M,,0000*62
510,525,577,29.500000,1005.812496
$GPGGA,051757.000,4334.7583,N,14159.9749,E,1,11,0.9,44.1,M,31.5,M,,0000*60
510,525,576,29.500000,1004.968752
$GPGGA,051759.000,4334.7583,N,14159.9749,E,1,11,0.9,44.1,M,31.5,M,,0000*6E
511,525,577,29.500000,1006.203124
$GPGGA,051801.000,4334.7583,N,14159.9749,E,1,11,0.9,44.1,M,31.5,M,,0000*6C
511,525,576,29.500000,1006.203124
$GPGGA,051803.000,4334.7583,N,14159.9749,E,1,11,0.9,44.1,M,31.5,M,,0000*6E
511,525,576,29.562496,1006.203124
$GPGGA,051805.000,4334.7583,N,14159.9749,E,1,11,0.9,44.1,M,31.5,M,,0000*68
510,525,576,29.562496,1005.812496
$GPGGA,051807.000,4334.7583,N,14159.9749,E,1,11,0.9,44.1,M,31.5,M,,0000*6A
509,524,577,29.562496,1006.203124
$GPGGA,051809.000,4334.7583,N,14159.9749,E,1,11,0.9,44.1,M,31.5,M,,0000*64
510,526,576,29.562496,1005.812496
$GPGGA,051811.000,4334.7583,N,14159.9749,E,1,11,0.9,44.1,M,31.5,M,,0000*6D
510,525,577,29.562496,1004.593744
$GPGGA,051813.000,4334.7583,N,14159.9749,E,1,11,0.9,44.1,M,31.5,M,,0000*6F
511,526,577,29.562496,1006.203124
$GPGGA,051815.000,4334.7583,N,14159.9749,E,1,11,0.9,44.1,M,31.5,M,,0000*69
511,524,577,29.562496,1004.593744
$GPGGA,051817.000,4334.7583,N,14159.9749,E,1,11,0.9,44.1,M,31.5,M,,0000*6B
510,525,576,29.562496,1005.812496
$GPGGA,051819.000,4334.7583,N,14159.9749,E,1,11,0.9,44.1,M,31.5,M,,0000*65
511,525,576,29.562496,1004.593744
$GPGGA,051821.000,4334.7583,N,14159.9749,E,1,11,0.9,44.1,M,31.5,M,,0000*6E
511,524,577,29.625008,1007.421872
$GPGGA,051823.000,4334.7583,N,14159.9749,E,1,11,0.9,44.1,M,31.5,M,,0000*6C
511,525,576,29.625008,1006.203124
$GPGGA,051825.000,4334.7583,N,14159.9749,E,1,11,0.9,44.1,M,31.5,M,,0000*6A
510,524,576,29.562496,1006.203124
$GPGGA,051827.000,4334.7583,N,14159.9749,E,1,11,0.9,44.1,M,31.5,M,,0000*68
512,525,576,29.562496,1005.812496
$GPGGA,051829.000,4334.7583,N,14159.9749,E,1,11,0.9,44.1,M,31.5,M,,0000*66
510,525,577,29.562496,1005.812496
$GPGGA,051831.000,4334.7583,N,14159.9749,E,1,11,0.9,44.1,M,31.5,M,,0000*6F
511,525,576,29.562496,1005.812496
$GPGGA,051833.000,4334.7583,N,14159.9749,E,1,11,0.9,44.1,M,31.5,M,,0000*6D
511,524,576,29.562496,1005.812496
$GPGGA,051835.000,4334.7583,N,14159.9749,E,1,11,0.9,44.1,M,31.5,M,,0000*6B
511,524,577,29.562496,1005.812496
$GPGGA,051837.000,4334.7583,N,14159.9749,E,1,11,0.9,44.1,M,31.5,M,,0000*69
511,525,576,29.562496,1004.593744
$GPGGA,051839.000,4334.7583,N,14159.9749,E,1,11,0.9,44.1,M,31.5,M,,0000*67
511,525,576,29.562496,1005.812496
$GPGGA,051841.000,4334.7583,N,14159.9749,E,1,11,0.9,44.1,M,31.5,M,,0000*68
510,522,576,29.562496,1006.203124
$GPGGA,051843.000,4334.7583,N,14159.9749,E,1,11,0.9,44.1,M,31.5,M,,0000*6A
510,525,576,29.625008,1005.812496
$GPGGA,051845.000,4334.7583,N,14159.9749,E,1,11,0.9,44.1,M,31.5,M,,0000*6C
510,525,577,29.625008,1005.812496
$GPGGA,051847.000,4334.7583,N,14159.9749,E,1,11,0.9,44.1,M,31.5,M,,0000*6E
510,526,577,29.625008,1006.203124
$GPGGA,051849.000,4334.7583,N,14159.9749,E,1,11,0.9,44.1,M,31.5,M,,0000*60
510,524,577,29.625008,1005.812496
$GPGGA,051851.000,4334.7583,N,14159.9749,E,1,11,0.9,44.1,M,31.5,M,,0000*69
511,525,577,29.562496,1006.203124
$GPGGA,051853.000,4334.7583,N,14159.9749,E,1,11,0.9,44.1,M,31.5,M,,0000*6B
511,525,577,29.625008,1005.812496
$GPGGA,051855.000,4334.7583,N,14159.9749,E,1,11,0.9,44.1,M,31.5,M,,0000*6D
511,525,576,29.625008,1005.812496
$GPGGA,051857.000,4334.7583,N,14159.9749,E,1,11,0.9,44.1,M,31.5,M,,0000*6F
510,525,577,29.562496,1006.203124
$GPGGA,051859.000,4334.7583,N,14159.9749,E,1,11,0.9,44.1,M,31.5,M,,0000*61
511,525,577,29.625008,1006.203124
$GPGGA,051901.000,4334.7583,N,14159.9749,E,1,11,0.9,44.1,M,31.5,M,,0000*6D
510,525,576,29.625008,1005.812496
$GPGGA,051903.000,4334.7583,N,14159.9749,E,1,11,0.9,44.1,M,31.5,M,,0000*6F
510,525,577,29.625008,1006.203124
$GPGGA,051905.000,4334.7583,N,14159.9749,E,1,11,0.9,44.1,M,31.5,M,,0000*69
511,525,576,29.625008,1005.812496
$GPGGA,051907.000,4334.7583,N,14159.9749,E,1,11,0.9,44.1,M,31.5,M,,0000*6B
510,530,576,29.625008,1005.812496
$GPGGA,051909.000,4334.7583,N,14159.9749,E,1,11,0.9,44.1,M,31.5,M,,0000*65
511,524,576,29.562496,1005.812496
$GPGGA,051911.000,4334.7583,N,14159.9749,E,1,11,0.9,44.1,M,31.5,M,,0000*6C
511,525,577,29.625008,1006.203124
$GPGGA,051913.000,4334.7583,N,14159.9749,E,1,11,0.9,44.1,M,31.5,M,,0000*6E
511,525,577,29.625008,1005.812496
$GPGGA,051915.000,4334.7583,N,14159.9749,E,1,11,0.9,44.1,M,31.5,M,,0000*68
511,525,577,29.625008,1005.812496
$GPGGA,051917.000,4334.7583,N,14159.9749,E,1,11,0.9,44.1,M,31.5,M,,0000*6A
511,525,576,29.625008,1005.812496
$GPGGA,051919.000,4334.7583,N,14159.9749,E,1,11,0.9,44.1,M,31.5,M,,0000*64
511,525,576,29.625008,1005.812496
$GPGGA,051921.000,4334.7583,N,14159.9749,E,1,11,0.9,44.1,M,31.5,M,,0000*6F
512,525,576,29.625008,1005.812496
$GPGGA,051923.000,4334.7583,N,14159.9749,E,1,11,0.9,44.1,M,31.5,M,,0000*6D
511,525,576,29.625008,1005.812496
$GPGGA,051925.000,4334.7583,N,14159.9749,E,1,11,0.9,44.1,M,31.5,M,,0000*6B
511,525,577,29.625008,1005.812496
$GPGGA,051927.000,4334.7583,N,14159.9749,E,1,11,0.9,44.1,M,31.5,M,,0000*69
510,525,577,29.625008,1005.812496
$GPGGA,051929.000,4334.7583,N,14159.9749,E,1,11,0.9,44.1,M,31.5,M,,0000*67
510,525,577,29.625008,1005.812496
$GPGGA,051931.000,4334.7583,N,14159.9749,E,1,11,0.9,44.1,M,31.5,M,,0000*6E
511,525,577,29.625008,1005.812496
$GPGGA,051933.000,4334.7583,N,14159.9749,E,1,11,0.9,44.1,M,31.5,M,,0000*6C
510,526,577,29.625008,1005.812496
$GPGGA,051935.000,4334.7583,N,14159.9749,E,1,11,0.9,44.1,M,31.5,M,,0000*6A
511,525,576,29.625008,1006.203124
$GPGGA,051937.000,4334.7583,N,14159.9749,E,1,11,0.9,44.1,M,31.5,M,,0000*68
510,525,577,29.625008,1005.812496
$GPGGA,051939.000,4334.7583,N,14159.9749,E,1,11,0.9,44.1,M,31.5,M,,0000*66
510,525,576,29.625008,1006.203124
$GPGGA,051941.000,4334.7583,N,14159.9749,E,1,11,0.9,44.1,M,31.5,M,,0000*69
511,525,576,29.625008,1006.640624
$GPGGA,051943.000,4334.7583,N,14159.9749,E,1,11,0.9,44.1,M,31.5,M,,0000*6B
511,525,576,29.625008,1006.203124
$GPGGA,051945.000,4334.7583,N,14159.9749,E,1,11,0.9,44.1,M,31.5,M,,0000*6D
511,525,577,29.625008,1005.812496
$GPGGA,051947.000,4334.7583,N,14159.9749,E,1,11,0.9,44.1,M,31.5,M,,0000*6F
511,525,577,29.625008,1005.812496
$GPGGA,051949.000,4334.7583,N,14159.9749,E,1,11,0.9,44.1,M,31.5,M,,0000*61
510,525,576,29.687504,1005.812496
$GPGGA,051951.000,4334.7583,N,14159.9749,E,1,11,0.9,44.1,M,31.5,M,,0000*68
511,525,577,29.625008,1005.812496
$GPGGA,051953.000,4334.7583,N,14159.9749,E,1,11,0.9,44.1,M,31.5,M,,0000*6A
511,525,576,29.687504,1006.203124
$GPGGA,051955.000,4334.7583,N,14159.9749,E,1,11,0.9,44.1,M,31.5,M,,0000*6C
511,525,576,29.687504,1007.046875
$GPGGA,051957.000,4334.7583,N,14159.9749,E,1,11,0.9,44.1,M,31.5,M,,0000*6E
511,525,577,29.687504,1006.203124
$GPGGA,051959.000,4334.7583,N,14159.9749,E,1,11,0.9,44.1,M,31.5,M,,0000*60
511,525,577,29.625008,1006.203124
$GPGGA,052001.000,4334.7583,N,14159.9749,E,1,11,0.9,44.1,M,31.5,M,,0000*67
510,524,577,29.687504,1005.812496
$GPGGA,052003.000,4334.7583,N,14159.9749,E,1,11,0.9,44.1,M,31.5,M,,0000*65
510,525,576,29.625008,1006.203124
$GPGGA,052005.000,4334.7583,N,14159.9749,E,1,11,0.9,44.1,M,31.5,M,,0000*63
511,525,577,29.687504,1005.812496
$GPGGA,052007.000,4334.7583,N,14159.9749,E,1,11,0.9,44.1,M,31.5,M,,0000*61
511,525,576,29.687504,1006.203124
$GPGGA,052009.000,4334.7583,N,14159.9749,E,1,11,0.9,44.1,M,31.5,M,,0000*6F
511,525,577,29.687504,1005.812496
$GPGGA,052011.000,4334.7583,N,14159.9749,E,1,11,0.9,44.1,M,31.5,M,,0000*66
510,524,577,29.687504,1005.812496
$GPGGA,052013.000,4334.7583,N,14159.9749,E,1,11,0.9,44.1,M,31.5,M,,0000*64
511,525,576,29.687504,1006.203124
$GPGGA,052015.000,4334.7583,N,14159.9749,E,1,11,0.9,44.1,M,31.5,M,,0000*62
511,525,576,29.750000,1006.203124
$GPGGA,052017.000,4334.7583,N,14159.9749,E,1,11,0.9,44.1,M,31.5,M,,0000*60
511,524,576,29.750000,1005.812496
$GPGGA,052019.000,4334.7583,N,14159.9749,E,1,11,0.9,44.1,M,31.5,M,,0000*6E
511,525,576,29.687504,1006.203124
$GPGGA,052021.000,4334.7583,N,14159.9749,E,1,11,0.9,44.1,M,31.5,M,,0000*65
510,527,577,29.687504,1006.203124
$GPGGA,052023.000,4334.7583,N,14159.9749,E,1,11,0.9,44.1,M,31.5,M,,0000*67
511,525,577,29.750000,1006.203124
$GPGGA,052025.000,4334.7583,N,14159.9749,E,1,11,0.9,44.1,M,31.5,M,,0000*61
511,521,576,29.687504,1005.812496
$GPGGA,052027.000,4334.7583,N,14159.9749,E,1,11,0.9,44.1,M,31.5,M,,0000*63
510,525,576,29.750000,1005.812496
$GPGGA,052029.000,4334.7583,N,14159.9749,E,1,11,0.9,44.1,M,31.5,M,,0000*6D
511,525,577,29.812496,1004.968752
$GPGGA,052031.000,4334.7583,N,14159.9749,E,1,11,0.9,44.1,M,31.5,M,,0000*64
511,524,577,29.687504,1004.968752
$GPGGA,052033.000,4334.7583,N,14159.9749,E,1,11,0.9,44.1,M,31.5,M,,0000*66
510,529,577,29.750000,1006.203124
$GPGGA,052035.000,4334.7583,N,14159.9749,E,1,11,0.9,44.1,M,31.5,M,,0000*60
510,525,577,29.750000,1006.203124
$GPGGA,052037.000,4334.7583,N,14159.9749,E,1,11,0.9,44.1,M,31.5,M,,0000*62
511,525,577,29.687504,1005.375000
$GPGGA,052039.000,4334.7583,N,14159.9749,E,1,11,0.9,44.1,M,31.5,M,,0000*6C
511,524,576,29.750000,1004.593744
$GPGGA,052041.000,4334.7583,N,14159.9749,E,1,11,0.9,44.1,M,31.5,M,,0000*63
510,523,576,29.750000,1006.203124
$GPGGA,052043.000,4334.7583,N,14159.9749,E,1,11,0.9,44.1,M,31.5,M,,0000*61
510,525,576,29.687504,1005.812496
$GPGGA,052045.000,4334.7583,N,14159.9749,E,1,11,0.9,44.1,M,31.5,M,,0000*67
511,524,576,29.750000,1004.968752
$GPGGA,052047.000,4334.7583,N,14159.9749,E,1,11,0.9,44.1,M,31.5,M,,0000*65
510,526,576,29.750000,1005.812496
$GPGGA,052049.000,4334.7583,N,14159.9749,E,1,11,0.9,44.1,M,31.5,M,,0000*6B
511,524,576,29.750000,1004.968752
$GPGGA,052051.000,4334.7583,N,14159.9749,E,1,11,0.9,44.1,M,31.5,M,,0000*62
511,525,577,29.750000,1006.203124
$GPGGA,052053.000,4334.7583,N,14159.9749,E,1,11,0.9,44.1,M,31.5,M,,0000*60
510,525,577,29.750000,1005.812496
$GPGGA,052055.000,4334.7583,N,14159.9749,E,1,11,0.9,44.1,M,31.5,M,,0000*66
511,524,576,29.750000,1005.812496
$GPGGA,052057.000,4334.7583,N,14159.9749,E,1,11,0.9,44.1,M,31.5,M,,0000*64
510,525,577,29.750000,1005.812496
$GPGGA,052059.000,4334.7583,N,14159.9749,E,1,11,0.9,44.1,M,31.5,M,,0000*6A
511,529,577,29.750000,1005.812496
$GPGGA,052101.000,4334.7583,N,14159.9749,E,1,11,0.9,44.1,M,31.5,M,,0000*66
511,524,577,29.687504,1005.812496
$GPGGA,052103.000,4334.7583,N,14159.9749,E,1,11,0.9,44.1,M,31.5,M,,0000*64
511,524,575,29.750000,1005.812496
$GPGGA,052105.000,4334.7583,N,14159.9749,E,1,11,0.9,44.1,M,31.5,M,,0000*62
511,525,576,29.750000,1005.437504
$GPGGA,052107.000,4334.7583,N,14159.9749,E,1,11,0.9,44.1,M,31.5,M,,0000*60
509,525,576,29.687504,1005.812496
$GPGGA,052109.000,4334.7583,N,14159.9749,E,1,11,0.9,44.1,M,31.5,M,,0000*6E
511,526,577,29.750000,1006.203124
$GPGGA,052111.000,4334.7583,N,14159.9749,E,1,11,0.9,44.1,M,31.5,M,,0000*67
510,525,576,29.750000,1004.593744
$GPGGA,052113.000,4334.7583,N,14159.9749,E,1,10,1.1,44.1,M,31.5,M,,0000*6D
511,525,576,29.687504,1005.812496
$GPGGA,052115.000,4334.7583,N,14159.9749,E,1,11,0.9,44.1,M,31.5,M,,0000*63
510,524,576,29.750000,1005.812496
$GPGGA,052117.000,4334.7583,N,14159.9749,E,1,11,0.9,44.1,M,31.5,M,,0000*61
511,525,575,29.687504,1006.203124
$GPGGA,052119.000,4334.7583,N,14159.9749,E,1,11,0.9,44.1,M,31.5,M,,0000*6F
512,525,576,29.750000,1005.812496
$GPGGA,052121.000,4334.7583,N,14159.9749,E,1,11,0.9,44.1,M,31.5,M,,0000*64
511,525,576,29.750000,1005.812496
$GPGGA,052123.000,4334.7583,N,14159.9749,E,1,11,0.9,44.1,M,31.5,M,,0000*66
510,525,577,29.750000,1007.046875
$GPGGA,052125.000,4334.7583,N,14159.9749,E,1,11,0.9,44.1,M,31.5,M,,0000*60
510,525,576,29.687504,1006.203124
$GPGGA,052127.000,4334.7583,N,14159.9749,E,1,11,0.9,44.1,M,31.5,M,,0000*62
511,525,576,29.687504,1005.812496
$GPGGA,052129.000,4334.7583,N,14159.9749,E,1,11,0.9,44.1,M,31.5,M,,0000*6C
510,526,577,29.750000,1005.812496
$GPGGA,052131.000,4334.7583,N,14159.9749,E,1,11,0.9,44.1,M,31.5,M,,0000*65
511,525,577,29.687504,1006.203124
$GPGGA,052133.000,4334.7583,N,14159.9749,E,1,11,0.9,44.1,M,31.5,M,,0000*67
511,525,577,29.750000,1005.812496
$GPGGA,052135.000,4334.7583,N,14159.9749,E,1,11,0.9,44.1,M,31.5,M,,0000*61
511,525,577,29.687504,1005.812496
$GPGGA,052137.000,4334.7583,N,14159.9749,E,1,11,0.9,44.1,M,31.5,M,,0000*63
511,525,577,29.750000,1005.812496
$GPGGA,052139.000,4334.7583,N,14159.9749,E,1,11,0.9,44.1,M,31.5,M,,0000*6D
510,525,577,29.750000,1004.593744
$GPGGA,052141.000,4334.7583,N,14159.9749,E,1,11,0.9,44.1,M,31.5,M,,0000*62
511,525,577,29.750000,1005.812496
$GPGGA,052143.000,4334.7583,N,14159.9749,E,1,11,0.9,44.1,M,31.5,M,,0000*60
511,526,577,29.687504,1006.203124
$GPGGA,052145.000,4334.7583,N,14159.9749,E,1,11,0.9,44.1,M,31.5,M,,0000*66
510,527,579,29.750000,1006.203124
$GPGGA,052147.000,4334.7583,N,14159.9749,E,1,11,0.9,44.1,M,31.5,M,,0000*64
510,525,577,29.687504,1007.046875
$GPGGA,052149.000,4334.7583,N,14159.9749,E,1,11,0.9,44.1,M,31.5,M,,0000*6A
510,525,577,29.625008,1005.812496
$GPGGA,052151.000,4334.7583,N,14159.9749,E,1,11,0.9,44.1,M,31.5,M,,0000*63
511,526,577,29.687504,1007.421872
$GPGGA,052153.000,4334.7583,N,14159.9749,E,1,11,0.9,44.1,M,31.5,M,,0000*61
510,525,576,29.625008,1006.203124
$GPGGA,052155.000,4334.7583,N,14159.9749,E,1,11,0.9,44.1,M,31.5,M,,0000*67
510,525,577,29.687504,1006.203124
$GPGGA,052157.000,4334.7583,N,14159.9749,E,1,11,0.9,44.1,M,31.5,M,,0000*65
510,526,577,29.625008,1005.812496
$GPGGA,052159.000,4334.7583,N,14159.9749,E,1,11,0.9,44.1,M,31.5,M,,0000*6B
510,528,577,29.687504,1005.812496
$GPGGA,052201.000,4334.7583,N,14159.9749,E,1,11,0.9,44.1,M,31.5,M,,0000*65
510,526,577,29.625008,1005.812496
$GPGGA,052203.000,4334.7583,N,14159.9749,E,1,11,0.9,44.1,M,31.5,M,,0000*67
510,526,577,29.625008,1005.812496
$GPGGA,052205.000,4334.7583,N,14159.9749,E,1,11,0.9,44.1,M,31.5,M,,0000*61
511,525,576,29.625008,1004.593744
$GPGGA,052207.000,4334.7583,N,14159.9749,E,1,11,0.9,44.1,M,31.5,M,,0000*63
511,521,578,29.625008,1005.812496
$GPGGA,052209.000,4334.7583,N,14159.9749,E,1,11,0.9,44.1,M,31.5,M,,0000*6D
510,525,577,29.687504,1005.812496
$GPGGA,052211.000,4334.7583,N,14159.9749,E,1,11,0.9,44.1,M,31.5,M,,0000*64
510,526,577,29.625008,1005.812496
$GPGGA,052213.000,4334.7583,N,14159.9749,E,1,11,0.9,44.1,M,31.5,M,,0000*66
511,525,577,29.625008,1005.812496
$GPGGA,052215.000,4334.7583,N,14159.9749,E,1,11,0.9,44.1,M,31.5,M,,0000*60
510,525,577,29.625008,1005.812496
$GPGGA,052217.000,4334.7583,N,14159.9749,E,1,11,0.9,44.1,M,31.5,M,,0000*62
511,525,577,29.625008,1006.640624
$GPGGA,052219.000,4334.7583,N,14159.9749,E,1,11,0.9,44.1,M,31.5,M,,0000*6C
510,525,577,29.625008,1006.203124
$GPGGA,052221.000,4334.7583,N,14159.9749,E,1,11,0.9,44.1,M,31.5,M,,0000*67
510,523,577,29.625008,1005.437504
$GPGGA,052223.000,4334.7583,N,14159.9749,E,1,11,0.9,44.1,M,31.5,M,,0000*65
510,525,577,29.625008,1005.437504
$GPGGA,052225.000,4334.7583,N,14159.9749,E,1,11,0.9,44.1,M,31.5,M,,0000*63
510,525,577,29.625008,1005.812496
$GPGGA,052227.000,4334.7583,N,14159.9749,E,1,11,0.9,44.1,M,31.5,M,,0000*61
510,527,578,29.625008,1005.812496
$GPGGA,052229.000,4334.7583,N,14159.9749,E,1,11,0.9,44.1,M,31.5,M,,0000*6F
510,526,577,29.562496,1005.812496
$GPGGA,052231.000,4334.7583,N,14159.9749,E,1,11,0.9,44.1,M,31.5,M,,0000*66
511,526,576,29.625008,1005.812496
$GPGGA,052233.000,4334.7583,N,14159.9749,E,1,11,0.9,44.1,M,31.5,M,,0000*64
509,525,577,29.625008,1005.812496
$GPGGA,052235.000,4334.7583,N,14159.9749,E,1,11,0.9,44.1,M,31.5,M,,0000*62
510,525,577,29.562496,1005.812496
$GPGGA,052237.000,4334.7583,N,14159.9749,E,1,11,0.9,44.1,M,31.5,M,,0000*60
510,525,577,29.562496,1005.812496
$GPGGA,052239.000,4334.7583,N,14159.9749,E,1,11,0.9,44.1,M,31.5,M,,0000*6E
510,526,577,29.562496,1007.421872
$GPGGA,052241.000,4334.7583,N,14159.9749,E,1,11,0.9,44.1,M,31.5,M,,0000*61
510,525,576,29.562496,1005.812496
$GPGGA,052243.000,4334.7583,N,14159.9749,E,1,11,0.9,44.1,M,31.5,M,,0000*63
510,526,576,29.562496,1005.812496
$GPGGA,052245.000,4334.7583,N,14159.9749,E,1,11,0.9,44.1,M,31.5,M,,0000*65
510,525,577,29.562496,1005.812496
$GPGGA,052247.000,4334.7583,N,14159.9749,E,1,10,1.0,44.1,M,31.5,M,,0000*6E
511,525,577,29.562496,1005.437504
$GPGGA,052249.000,4334.7583,N,14159.9749,E,1,11,0.9,44.1,M,31.5,M,,0000*69
510,524,577,29.562496,1005.437504
$GPGGA,052251.000,4334.7583,N,14159.9749,E,1,11,0.9,44.1,M,31.5,M,,0000*60
511,524,577,29.562496,1005.812496
$GPGGA,052253.000,4334.7583,N,14159.9749,E,1,11,0.9,44.1,M,31.5,M,,0000*62
511,526,577,29.500000,1005.437504
$GPGGA,052255.000,4334.7583,N,14159.9749,E,1,11,0.9,44.1,M,31.5,M,,0000*64
510,527,577,29.500000,1004.656256
$GPGGA,052257.000,4334.7583,N,14159.9749,E,1,11,0.9,44.1,M,31.5,M,,0000*66
511,525,576,29.500000,1004.656256
$GPGGA,052259.000,4334.7583,N,14159.9749,E,1,11,0.9,44.1,M,31.5,M,,0000*68
512,524,576,29.500000,1004.656256
$GPGGA,052301.000,4334.7583,N,14159.9749,E,1,11,0.9,44.1,M,31.5,M,,0000*64
511,525,577,29.500000,1005.812496
$GPGGA,052303.000,4334.7583,N,14159.9749,E,1,11,0.9,44.1,M,31.5,M,,0000*66
510,529,577,29.437504,1005.031250
$GPGGA,052305.000,4334.7583,N,14159.9749,E,1,11,0.9,44.1,M,31.5,M,,0000*60
510,526,577,29.500000,1005.437504
$GPGGA,052307.000,4334.7583,N,14159.9749,E,1,11,0.9,44.1,M,31.5,M,,0000*62
511,525,576,29.437504,1005.437504
$GPGGA,052309.000,4334.7583,N,14159.9749,E,1,11,0.9,44.1,M,31.5,M,,0000*6C
511,524,576,29.437504,1005.437504
$GPGGA,052311.000,4334.7583,N,14159.9749,E,1,11,0.9,44.1,M,31.5,M,,0000*65
511,524,576,29.437504,1005.031250
