000,1008.593744
$GPGGA,012109.144,,,,,0,00,,,M,0.0,M,,0000*5C
498,489,509,19.125000,1009.843744
$GPGGA,012110.144,,,,,0,00,,,M,0.0,M,,0000*54
498,488,509,19.187500,1010.218752
$GPGGA,012111.144,,,,,0,00,,,M,0.0,M,,0000*55
498,488,509,19.187500,1009.015625
$GPGGA,012112.144,,,,,0,00,,,M,0.0,M,,0000*56
498,488,509,19.125000,1010.218752
$GPGGA,012113.144,,,,,0,00,,,M,0.0,M,,0000*57
498,488,510,19.125000,1009.015625
$GPGGA,012114.144,,,,,0,00,,,M,0.0,M,,0000*50
498,488,508,19.187500,1008.593744
$GPGGA,012115.144,,,,,0,00,,,M,0.0,M,,0000*51
499,490,508,19.125000,1010.656256
$GPGGA,012116.143,,,,,0,00,,,M,0.0,M,,0000*55
498,489,508,19.187500,1008.593744
$GPGGA,012117.144,,,,,0,00,,,M,0.0,M,,0000*53
497,487,509,19.187500,1010.218752
$GPGGA,012118.144,,,,,0,00,,,M,0.0,M,,0000*5C
497,487,508,19.187500,1008.593744
$GPGGA,012119.144,,,,,0,00,,,M,0.0,M,,0000*5D
497,487,508,19.187500,1009.015625
$GPGGA,012120.144,,,,,0,07,,,M,0.0,M,,0000*50
496,485,510,19.187500,1010.218752
$GPGGA,012121.143,4334.7329,N,14159.9509,E,1,05,8.3,76.4,M,31.5,M,,0000*65
494,483,509,19.187500,1012.109376
$GPGGA,012123.000,4334.7533,N,14159.9594,E,1,06,2.9,70.6,M,31.5,M,,0000*6F
494,481,510,19.187500,1009.250000
$GPGGA,012125.000,4334.7592,N,14159.9617,E,1,07,1.7,67.8,M,31.5,M,,0000*6E
490,474,514,19.187500,1009.671872
$GPGGA,012127.000,4334.7592,N,14159.9617,E,1,07,1.7,67.8,M,31.5,M,,0000*6C
481,463,495,19.187500,1009.671872
$GPGGA,012129.000,4334.7634,N,14159.9771,E,1,07,1.7,37.3,M,31.5,M,,0000*62
480,459,498,19.187500,1011.734368
$GPGGA,012131.000,4334.7643,N,14159.9768,E,1,07,1.7,34.8,M,31.5,M,,0000*6B
486,467,514,19.125000,1010.078126
$GPGGA,012133.000,4334.7650,N,14159.9761,E,1,07,1.7,31.9,M,31.5,M,,0000*66
482,463,509,19.187500,1009.250000
$GPGGA,012135.000,4334.7660,N,14159.9763,E,1,07,1.7,28.5,M,31.5,M,,0000*65
489,468,521,19.187500,1009.671872
$GPGGA,012137.000,4334.7665,N,14159.9773,E,1,07,1.7,26.0,M,31.5,M,,0000*68
488,466,523,19.187500,1010.078126
$GPGGA,012139.000,4334.7665,N,14159.9774,E,1,07,1.7,25.6,M,31.5,M,,0000*64
488,466,521,19.250000,1009.671872
$GPGGA,012141.000,4334.7665,N,14159.9774,E,1,07,1.7,25.6,M,31.5,M,,0000*6B
488,466,520,19.312504,1010.078126
$GPGGA,012143.000,4334.7665,N,14159.9774,E,1,07,1.7,25.6,M,31.5,M,,0000*69
488,466,521,19.375000,1009.671872
$GPGGA,012145.000,4334.7665,N,14159.9774,E,1,07,1.7,25.6,M,31.5,M,,0000*6F
487,469,518,19.500000,1009.671872
$GPGGA,012147.000,4334.7665,N,14159.9774,E,1,07,1.7,25.6,M,31.5,M,,0000*6D
488,466,526,19.625008,1009.671872
$GPGGA,012149.000,4334.7665,N,14159.9774,E,1,07,1.7,25.6,M,31.5,M,,0000*63
487,469,521,19.625008,1010.078126
$GPGGA,012151.000,4334.7665,N,14159.9774,E,1,07,1.7,25.6,M,31.5,M,,0000*6A
490,470,513,19.750000,1010.078126
$GPGGA,012153.000,4334.7665,N,14159.9774,E,1,07,1.7,25.6,M,31.5,M,,0000*68
488,467,520,19.812496,1010.078126
$GPGGA,012155.000,4334.7665,N,14159.9774,E,1,07,1.7,25.6,M,31.5,M,,0000*6E
486,467,518,19.812496,1009.671872
$GPGGA,012157.000,4334.7665,N,14159.9774,E,1,07,1.7,25.6,M,31.5,M,,0000*6C
488,466,522,19.875008,1010.921872
$GPGGA,012159.000,4334.7665,N,14159.9774,E,1,07,1.7,25.6,M,31.5,M,,0000*62
488,465,524,19.875008,1010.500000
$GPGGA,012201.000,4334.7665,N,14159.9774,E,1,07,1.7,25.6,M,31.5,M,,0000*6C
490,469,516,19.937504,1010.078126
$GPGGA,012203.000,4334.7665,N,14159.9774,E,1,09,1.2,25.6,M,31.5,M,,0000*65
489,467,515,19.937504,1010.500000
$GPGGA,012205.000,4334.7665,N,14159.9774,E,1,09,1.2,25.6,M,31.5,M,,0000*63
488,466,520,19.937504,1011.734368
$GPGGA,012207.000,4334.7665,N,14159.9774,E,1,08,1.5,25.6,M,31.5,M,,0000*67
492,469,523,20.000000,1010.921872
$GPGGA,012209.000,4334.7665,N,14159.9774,E,1,09,1.2,25.6,M,31.5,M,,0000*6F
488,465,521,20.000000,1010.921872
$GPGGA,012211.000,4334.7665,N,14159.9774,E,1,08,1.5,25.6,M,31.5,M,,0000*60
487,468,521,20.000000,1010.921872
$GPGGA,012213.000,4334.7665,N,14159.9774,E,1,09,1.2,25.6,M,31.5,M,,0000*64
487,467,524,20.062500,1010.921872
$GPGGA,012215.000,4334.7665,N,14159.9774,E,1,09,1.2,25.6,M,31.5,M,,0000*62
487,468,509,20.062500,1010.921872
$GPGGA,012217.000,4334.7665,N,14159.9774,E,1,09,1.2,25.6,M,31.5,M,,0000*60
486,466,520,20.125000,1010.921872
$GPGGA,012219.000,4334.7665,N,14159.9774,E,1,09,1.2,25.6,M,31.5,M,,0000*6E
486,465,527,20.187500,1010.921872
$GPGGA,012221.000,4334.7665,N,14159.9774,E,1,09,1.2,25.6,M,31.5,M,,0000*65
485,463,518,20.125000,1010.921872
$GPGGA,012223.000,4334.7665,N,14159.9774,E,1,09,1.2,25.6,M,31.5,M,,0000*67
485,463,516,20.312504,1010.921872
$GPGGA,012225.000,4334.7665,N,14159.9774,E,1,09,1.2,25.6,M,31.5,M,,0000*61
487,467,514,20.312504,1010.921872
$GPGGA,012227.000,4334.7665,N,14159.9774,E,1,09,1.2,25.6,M,31.5,M,,0000*63
486,466,519,20.312504,1010.921872
$GPGGA,012229.000,4334.7665,N,14159.9774,E,1,09,1.2,25.6,M,31.5,M,,0000*6D
486,465,521,20.500000,1010.921872
$GPGGA,012231.000,4334.7665,N,14159.9774,E,1,09,1.2,25.6,M,31.5,M,,0000*64
486,465,526,20.500000,1010.921872
$GPGGA,012233.000,4334.7619,N,14159.9698,E,1,10,1.0,45.8,M,31.5,M,,0000*6C
488,464,515,20.500000,1012.140624
$GPGGA,012235.000,4334.7607,N,14159.9683,E,1,09,1.1,49.0,M,31.5,M,,0000*62
488,464,524,20.625008,1009.687504
$GPGGA,012237.000,4334.7607,N,14159.9683,E,1,09,1.1,49.0,M,31.5,M,,0000*60
488,463,522,20.625008,1010.500000
$GPGGA,012239.000,4334.7607,N,14159.9683,E,1,09,1.0,49.0,M,31.5,M,,0000*6F
485,463,520,20.625008,1010.921872
$GPGGA,012241.000,4334.7607,N,14159.9683,E,1,10,1.0,49.0,M,31.5,M,,0000*68
485,463,521,20.750000,1010.921872
$GPGGA,012243.000,4334.7607,N,14159.9683,E,1,10,1.0,49.0,M,31.5,M,,0000*6A
485,462,521,20.750000,1011.343752
$GPGGA,012245.000,4334.7607,N,14159.9683,E,1,10,1.0,49.0,M,31.5,M,,0000*6C
485,462,523,20.750000,1011.343752
$GPGGA,012247.000,4334.7607,N,14159.9683,E,1,10,1.0,49.0,M,31.5,M,,0000*6E
485,462,522,20.750000,1010.921872
$GPGGA,012249.000,4334.7607,N,14159.9683,E,1,10,1.0,49.0,M,31.5,M,,0000*60
485,462,524,20.750000,1010.921872
$GPGGA,012251.000,4334.7607,N,14159.9683,E,1,10,1.0,49.0,M,31.5,M,,0000*69
478,459,525,20.750000,1010.125000
$GPGGA,012253.000,4334.7607,N,14159.9683,E,1,10,1.0,49.0,M,31.5,M,,0000*6B
471,455,519,20.750000,1011.343752
$GPGGA,012255.000,4334.7607,N,14159.9683,E,1,10,1.0,49.0,M,31.5,M,,0000*6D
482,458,521,20.687504,1011.750000
$GPGGA,012257.000,4334.7607,N,14159.9683,E,1,10,1.0,49.0,M,31.5,M,,0000*6F
487,465,520,20.687504,1011.343752
$GPGGA,012259.000,4334.7607,N,14159.9683,E,1,10,1.0,49.0,M,31.5,M,,0000*61
487,466,521,20.687504,1010.125000
$GPGGA,012301.000,4334.7607,N,14159.9683,E,1,09,1.2,49.0,M,31.5,M,,0000*67
500,473,507,20.687504,1011.750000
$GPGGA,012303.000,4334.7607,N,14159.9683,E,1,11,1.0,49.0,M,31.5,M,,0000*6E
488,465,523,20.687504,1010.921872
$GPGGA,012305.000,4334.7607,N,14159.9683,E,1,11,1.0,49.0,M,31.5,M,,0000*68
485,462,526,20.687504,1011.343752
$GPGGA,012307.000,4334.7607,N,14159.9683,E,1,11,1.0,49.0,M,31.5,M,,0000*6A
487,466,524,20.625008,1009.718752
$GPGGA,012309.000,4334.7607,N,14159.9683,E,1,11,1.0,49.0,M,31.5,M,,0000*64
486,465,526,20.687504,1011.343752
$GPGGA,012311.000,4334.7607,N,14159.9683,E,1,11,1.0,49.0,M,31.5,M,,0000*6D
487,467,511,20.687504,1010.515624
$GPGGA,012313.000,4334.7607,N,14159.9683,E,1,11,1.0,49.0,M,31.5,M,,0000*6F
487,466,519,20.687504,1011.343752
$GPGGA,012315.000,4334.7607,N,14159.9683,E,1,11,1.0,49.0,M,31.5,M,,0000*69
491,469,516,20.687504,1011.750000
$GPGGA,012317.000,4334.7607,N,14159.9683,E,1,11,1.0,49.0,M,31.5,M,,0000*6B
485,463,508,20.687504,1010.515624
$GPGGA,012319.000,4334.7607,N,14159.9683,E,1,11,1.0,49.0,M,31.5,M,,0000*65
539,509,569,20.687504,1008.890624
$GPGGA,012321.000,4334.7607,N,14159.9683,E,1,11,1.0,49.0,M,31.5,M,,0000*6E
493,475,509,20.687504,1010.953120
$GPGGA,012323.000,4334.7607,N,14159.9683,E,1,11,1.0,49.0,M,31.5,M,,0000*6C
489,468,522,20.625008,1010.953120
$GPGGA,012325.000,4334.7607,N,14159.9683,E,1,11,1.0,49.0,M,31.5,M,,0000*6A
487,467,519,20.687504,1010.953120
$GPGGA,012327.000,4334.7607,N,14159.9683,E,1,11,1.0,49.0,M,31.5,M,,0000*68
489,466,529,20.687504,1009.312504
$GPGGA,012329.000,4334.7607,N,14159.9683,E,1,11,1.0,49.0,M,31.5,M,,0000*66
488,463,523,20.687504,1010.953120
$GPGGA,012331.000,4334.7607,N,14159.9683,E,1,11,1.0,49.0,M,31.5,M,,0000*6F
483,462,528,20.687504,1010.515624
$GPGGA,012333.000,4334.7607,N,14159.9683,E,1,11,1.0,49.0,M,31.5,M,,0000*6D
485,462,525,20.750000,1010.515624
$GPGGA,012335.000,4334.7607,N,14159.9683,E,1,11,1.0,49.0,M,31.5,M,,0000*6B
480,456,516,20.687504,1009.312504
$GPGGA,012337.000,4334.7607,N,14159.9683,E,1,11,1.0,49.0,M,31.5,M,,0000*69
491,467,522,20.687504,1010.515624
$GPGGA,012338.000,4334.7607,N,14159.9683,E,1,11,1.0,49.0,M,31.5,M,,0000*66
487,466,521,20.687504,1010.515624
$GPGGA,012340.000,4334.7607,N,14159.9683,E,1,11,1.0,49.0,M,31.5,M,,0000*69
485,462,526,20.687504,1012.187500
$GPGGA,012342.000,4334.7607,N,14159.9683,E,1,11,1.0,49.0,M,31.5,M,,0000*6B
485,462,525,20.687504,1009.312504
$GPGGA,012344.000,4334.7607,N,14159.9683,E,1,11,1.0,49.0,M,31.5,M,,0000*6D
484,459,525,20.625008,1009.718752
$GPGGA,012346.000,4334.7607,N,14159.9683,E,1,11,1.0,49.0,M,31.5,M,,0000*6F
479,459,523,20.687504,1010.125000
$GPGGA,012348.000,4334.7607,N,14159.9683,E,1,10,1.0,49.0,M,31.5,M,,0000*60
485,461,523,20.750000,1009.718752
$GPGGA,012350.000,4334.7607,N,14159.9683,E,1,11,1.0,49.0,M,31.5,M,,0000*68
482,459,524,20.625008,1012.578128
$GPGGA,012352.000,4334.7607,N,14159.9683,E,1,11,1.0,49.0,M,31.5,M,,0000*6A
483,461,524,20.687504,1012.187500
$GPGGA,012354.000,4334.7607,N,14159.9683,E,1,11,1.0,49.0,M,31.5,M,,0000*6C
486,463,529,20.687504,1011.375000
$GPGGA,012356.000,4334.7607,N,14159.9683,E,1,11,1.0,49.0,M,31.5,M,,0000*6E
483,461,525,20.687504,1009.718752
$GPGGA,012358.000,4334.7607,N,14159.9683,E,1,11,1.0,49.0,M,31.5,M,,0000*60
484,459,525,20.687504,1010.140624
$GPGGA,012400.000,4334.7607,N,14159.9683,E,1,11,1.0,49.0,M,31.5,M,,0000*6A
485,461,525,20.687504,1010.953120
$GPGGA,012402.000,4334.7607,N,14159.9683,E,1,10,1.0,49.0,M,31.5,M,,0000*69
478,458,519,20.687504,1010.953120
$GPGGA,012404.000,4334.7607,N,14159.9683,E,1,10,1.0,49.0,M,31.5,M,,0000*6F
486,462,514,20.812496,1010.953120
$GPGGA,012406.000,4334.7607,N,14159.9683,E,1,11,1.0,49.0,M,31.5,M,,0000*6C
491,468,508,20.812496,1010.140624
$GPGGA,012408.000,4334.7607,N,14159.9683,E,1,11,1.0,49.0,M,31.5,M,,0000*62
486,463,525,20.875008,1011.375000
$GPGGA,012410.000,4334.7607,N,14159.9683,E,1,11,1.0,49.0,M,31.5,M,,0000*6B
486,463,516,20.937504,1010.953120
$GPGGA,012412.000,4334.7607,N,14159.9683,E,1,11,1.0,49.0,M,31.5,M,,0000*69
483,462,528,21.000000,1010.140624
$GPGGA,012414.000,4334.7607,N,14159.9683,E,1,11,1.0,49.0,M,31.5,M,,0000*6F
483,461,525,21.125000,1010.140624
$GPGGA,012416.000,4334.7607,N,14159.9683,E,1,11,1.0,49.0,M,31.5,M,,0000*6D
478,457,517,21.125000,1008.906256
$GPGGA,012418.000,4334.7607,N,14159.9683,E,1,11,1.0,49.0,M,31.5,M,,0000*63
478,457,516,21.187500,1008.906256
$GPGGA,012420.000,4334.7607,N,14159.9683,E,1,11,1.0,49.0,M,31.5,M,,0000*68
480,453,513,21.250000,1010.140624
$GPGGA,012422.000,4334.7607,N,14159.9683,E,1,11,1.0,49.0,M,31.5,M,,0000*6A
485,458,522,21.375000,1011.375000
$GPGGA,012424.000,4334.7607,N,14159.9683,E,1,11,1.0,49.0,M,31.5,M,,0000*6C
484,458,522,21.437504,1010.140624
$GPGGA,012426.000,4334.7607,N,14159.9683,E,1,11,1.0,49.0,M,31.5,M,,0000*6E
488,460,514,21.500000,1011.375000
$GPGGA,012428.000,4334.7607,N,14159.9683,E,1,11,1.0,49.0,M,31.5,M,,0000*60
483,460,521,21.562496,1008.906256
$GPGGA,012430.000,4334.7607,N,14159.9683,E,1,11,1.0,49.0,M,31.5,M,,0000*69
484,458,521,21.625008,1008.500000
$GPGGA,012432.000,4334.7607,N,14159.9683,E,1,11,1.0,49.0,M,31.5,M,,0000*6B
483,459,525,21.687504,1010.968752
$GPGGA,012434.000,4334.7607,N,14159.9683,E,1,11,1.0,49.0,M,31.5,M,,0000*6D
484,458,522,21.750000,1008.906256
$GPGGA,012436.000,4334.7607,N,14159.9683,E,1,11,1.0,49.0,M,31.5,M,,0000*6F
482,457,517,21.750000,1010.140624
$GPGGA,012438.000,4334.7607,N,14159.9683,E,1,11,1.0,49.0,M,31.5,M,,0000*61
482,456,515,21.875008,1010.968752
$GPGGA,012440.000,4334.7607,N,14159.9683,E,1,11,1.0,49.0,M,31.5,M,,0000*6E
483,458,522,21.875008,1011.781248
$GPGGA,012442.000,4334.7607,N,14159.9683,E,1,11,1.0,49.0,M,31.5,M,,0000*6C
483,459,524,22.000000,1010.562496
$GPGGA,012444.000,4334.7607,N,14159.9683,E,1,11,1.0,49.0,M,31.5,M,,0000*6A
484,457,518,22.062500,1009.328128
$GPGGA,012446.000,4334.7607,N,14159.9683,E,1,11,1.0,49.0,M,31.5,M,,0000*68
483,458,521,22.062500,1012.203124
$GPGGA,012448.000,4334.7607,N,14159.9683,E,1,11,1.0,49.0,M,31.5,M,,0000*66
484,456,515,22.187500,1010.968752
$GPGGA,012450.000,4334.7607,N,14159.9683,E,1,11,1.0,49.0,M,31.5,M,,0000*6F
483,457,519,22.250000,1010.156252
$GPGGA,012452.000,4334.7607,N,14159.9683,E,1,11,1.0,49.0,M,31.5,M,,0000*6D
483,458,522,22.312504,1012.203124
$GPGGA,012454.000,4334.7607,N,14159.9683,E,1,11,1.0,49.0,M,31.5,M,,0000*6B
483,458,522,22.375000,1012.203124
$GPGGA,012456.000,4334.7607,N,14159.9683,E,1,11,1.0,49.0,M,31.5,M,,0000*69
484,456,515,22.562496,1010.156252
$GPGGA,012458.000,4334.7607,N,14159.9683,E,1,11,1.0,49.0,M,31.5,M,,0000*67
486,460,520,22.500000,1011.390624
$GPGGA,012500.000,4334.7607,N,14159.9683,E,1,11,1.0,49.0,M,31.5,M,,0000*6B
479,457,517,22.562496,1009.750000
$GPGGA,012502.000,4334.7607,N,14159.9683,E,1,11,1.0,49.0,M,31.5,M,,0000*69
484,456,515,22.625008,1010.156252
$GPGGA,012504.000,4334.7607,N,14159.9683,E,1,11,1.0,49.0,M,31.5,M,,0000*6F
482,454,516,22.625008,1010.156252
$GPGGA,012506.000,4334.7607,N,14159.9683,E,1,10,1.1,49.0,M,31.5,M,,0000*6D
482,455,519,22.687504,1010.156252
$GPGGA,012508.000,4334.7607,N,14159.9683,E,1,10,1.1,49.0,M,31.5,M,,0000*63
482,454,516,22.687504,1009.750000
$GPGGA,012510.000,4334.7607,N,14159.9683,E,1,11,1.0,49.0,M,31.5,M,,0000*6A
481,453,512,22.812496,1013.046875
$GPGGA,012512.000,4334.7607,N,14159.9683,E,1,11,1.0,49.0,M,31.5,M,,0000*68
482,454,515,22.812496,1009.375000
$GPGGA,012514.000,4334.7607,N,14159.9683,E,1,11,1.0,49.0,M,31.5,M,,0000*6E
481,452,510,22.812496,1013.046875
$GPGGA,012516.000,4334.7607,N,14159.9683,E,1,11,1.0,49.0,M,31.5,M,,0000*6C
482,454,515,22.937504,1009.375000
$GPGGA,012518.000,4334.7607,N,14159.9683,E,1,11,1.0,49.0,M,31.5,M,,0000*62
482,454,516,22.937504,1010.593744
$GPGGA,012520.000,4334.7607,N,14159.9683,E,1,11,1.0,49.0,M,31.5,M,,0000*69
482,454,515,23.062500,1011.000000
$GPGGA,012522.000,4334.7607,N,14159.9683,E,1,11,1.0,49.0,M,31.5,M,,0000*6B
482,454,516,23.125000,1009.765632
$GPGGA,012524.000,4334.7607,N,14159.9683,E,1,11,1.0,49.0,M,31.5,M,,0000*6D
481,452,510,23.187500,1011.000000
$GPGGA,012526.000,4334.7607,N,14159.9683,E,1,11,1.0,49.0,M,31.5,M,,0000*6F
481,451,512,23.187500,1009.765632
$GPGGA,012528.000,4334.7607,N,14159.9683,E,1,11,1.0,49.0,M,31.5,M,,0000*61
481,451,513,23.250000,1011.000000
$GPGGA,012530.000,4334.7607,N,14159.9683,E,1,11,1.0,49.0,M,31.5,M,,0000*68
480,449,507,23.312504,1009.375000
$GPGGA,012532.000,4334.7607,N,14159.9683,E,1,11,1.0,49.0,M,31.5,M,,0000*6A
481,450,509,23.375000,1011.843744
$GPGGA,012534.000,4334.7607,N,14159.9683,E,1,11,1.0,49.0,M,31.5,M,,0000*6C
480,448,504,23.437504,1009.765632
$GPGGA,012536.000,4334.7607,N,14159.9683,E,1,11,1.0,49.0,M,31.5,M,,0000*6E
480,448,505,23.437504,1010.203124
$GPGGA,012538.000,4334.7607,N,14159.9683,E,1,11,1.0,49.0,M,31.5,M,,0000*60
480,448,504,23.500000,1011.437504
$GPGGA,012540.000,4334.7607,N,14159.9683,E,1,11,1.0,49.0,M,31.5,M,,0000*6F
480,447,513,23.500000,1010.203124
$GPGGA,012542.000,4334.7607,N,14159.9683,E,1,11,1.0,49.0,M,31.5,M,,0000*6D
480,449,506,23.562496,1009.765632
$GPGGA,012544.000,4334.7607,N,14159.9683,E,1,11,1.0,49.0,M,31.5,M,,0000*6B
480,448,504,23.562496,1008.968752
$GPGGA,012546.000,4334.7607,N,14159.9683,E,1,11,1.0,49.0,M,31.5,M,,0000*69
479,452,510,23.562496,1010.625008
$GPGGA,012548.000,4334.7607,N,14159.9683,E,1,11,1.0,49.0,M,31.5,M,,0000*67
481,449,507,23.625008,1010.625008
$GPGGA,012550.000,4334.7607,N,14159.9683,E,1,11,1.0,49.0,M,31.5,M,,0000*6E
480,448,505,23.562496,1010.625008
$GPGGA,012552.000,4334.7607,N,14159.9683,E,1,11,1.0,49.0,M,31.5,M,,0000*6C
479,451,513,23.625008,1010.625008
$GPGGA,012554.000,4334.7607,N,14159.9683,E,1,11,1.0,49.0,M,31.5,M,,0000*6A
481,450,509,23.625008,1010.625008
$GPGGA,012556.000,4334.7607,N,14159.9683,E,1,11,1.0,49.0,M,31.5,M,,0000*68
480,447,512,23.687504,1011.031250
$GPGGA,012558.000,4334.7607,N,14159.9683,E,1,11,1.0,49.0,M,31.5,M,,0000*66
479,453,512,23.625008,1011.031250
$GPGGA,012600.000,4334.7607,N,14159.9683,E,1,11,1.0,49.0,M,31.5,M,,0000*68
480,448,505,23.625008,1010.203124
$GPGGA,012602.000,4334.7607,N,14159.9683,E,1,11,1.0,49.0,M,31.5,M,,0000*6A
479,452,510,23.687504,1009.796880
$GPGGA,012604.000,4334.7607,N,14159.9683,E,1,11,1.0,49.0,M,31.5,M,,0000*6C
480,448,504,23.687504,1011.031250
$GPGGA,012606.000,4334.7607,N,14159.9683,E,1,11,1.0,49.0,M,31.5,M,,0000*6E
479,451,513,23.687504,1009.796880
$GPGGA,012608.000,4334.7607,N,14159.9683,E,1,11,1.0,49.0,M,31.5,M,,0000*60
480,447,513,23.687504,1008.546880
$GPGGA,012610.000,4334.7607,N,14159.9683,E,1,11,1.0,49.0,M,31.5,M,,0000*69
479,453,511,23.687504,1011.031250
$GPGGA,012612.000,4334.7607,N,14159.9683,E,1,11,1.0,49.0,M,31.5,M,,0000*6B
480,448,504,23.750000,1008.546880
$GPGGA,012614.000,4334.7607,N,14159.9683,E,1,11,1.0,49.0,M,31.5,M,,0000*6D
479,451,512,23.750000,1011.453128
$GPGGA,012616.000,4334.7607,N,14159.9683,E,1,11,1.0,49.0,M,31.5,M,,0000*6F
479,452,510,23.687504,1009.796880
$GPGGA,012618.000,4334.7607,N,14159.9683,E,1,11,1.0,49.0,M,31.5,M,,0000*61
480,446,510,23.750000,1010.203124
$GPGGA,012620.000,4334.7607,N,14159.9683,E,1,11,1.0,49.0,M,31.5,M,,0000*6A
479,451,513,23.750000,1008.546880
$GPGGA,012622.000,4334.7607,N,14159.9683,E,1,11,1.0,49.0,M,31.5,M,,0000*68
479,452,510,23.750000,1009.796880
$GPGGA,012624.000,4334.7607,N,14159.9683,E,1,11,1.0,49.0,M,31.5,M,,0000*6E
480,446,509,23.750000,1009.796880
$GPGGA,012626.000,4334.7607,N,14159.9683,E,1,11,1.0,49.0,M,31.5,M,,0000*6C
478,449,506,23.750000,1010.640624
$GPGGA,012628.000,4334.7607,N,14159.9683,E,1,11,1.0,49.0,M,31.5,M,,0000*62
479,450,509,23.812496,1009.390624
$GPGGA,012630.000,4334.7607,N,14159.9683,E,1,11,1.0,49.0,M,31.5,M,,0000*6B
479,451,512,23.812496,1009.390624
$GPGGA,012632.000,4334.7607,N,14159.9683,E,1,11,1.0,49.0,M,31.5,M,,0000*69
479,451,512,23.812496,1010.640624
$GPGGA,012634.000,4334.7607,N,14159.9683,E,1,11,1.0,49.0,M,31.5,M,,0000*6F
479,451,513,23.812496,1009.796880
$GPGGA,012636.000,4334.7607,N,14159.9683,E,1,11,1.0,49.0,M,31.5,M,,0000*6D
479,451,512,23.875008,1009.390624
$GPGGA,012638.000,4334.7607,N,14159.9683,E,1,11,1.0,49.0,M,31.5,M,,0000*63
478,449,506,23.812496,1008.968752
$GPGGA,012640.000,4334.7607,N,14159.9683,E,1,11,1.0,49.0,M,31.5,M,,0000*6C
478,448,504,23.875008,1009.796880
$GPGGA,012642.000,4334.7607,N,14159.9683,E,1,11,1.0,49.0,M,31.5,M,,0000*6E
478,448,504,23.937504,1010.640624
$GPGGA,012644.000,4334.7607,N,14159.9683,E,1,11,1.0,49.0,M,31.5,M,,0000*68
477,445,506,23.937504,1011.453128
$GPGGA,012646.000,4334.7607,N,14159.9683,E,1,11,1.0,49.0,M,31.5,M,,0000*6A
478,448,504,23.937504,1010.218752
$GPGGA,012648.000,4334.7607,N,14159.9683,E,1,11,1.0,49.0,M,31.5,M,,0000*64
478,447,512,23.937504,1010.218752
$GPGGA,012650.000,4334.7607,N,14159.9683,E,1,11,1.0,49.0,M,31.5,M,,0000*6D
477,446,510,23.937504,1009.796880
$GPGGA,012652.000,4334.7607,N,14159.9683,E,1,11,1.0,49.0,M,31.5,M,,0000*6F
477,446,509,23.937504,1009.796880
$GPGGA,012654.000,4334.7607,N,14159.9683,E,1,11,1.0,49.0,M,31.5,M,,0000*69
477,446,509,23.937504,1010.218752
$GPGGA,012656.000,4334.7607,N,14159.9683,E,1,11,1.0,49.0,M,31.5,M,,0000*6B
477,445,506,24.062500,1010.218752
$GPGGA,012658.000,4334.7607,N,14159.9683,E,1,11,1.0,49.0,M,31.5,M,,0000*65
477,445,506,24.000000,1010.218752
$GPGGA,012700.000,4334.7607,N,14159.9683,E,1,11,1.0,49.0,M,31.5,M,,0000*69
476,443,506,24.062500,1010.218752
$GPGGA,012702.000,4334.7607,N,14159.9683,E,1,11,1.0,49.0,M,31.5,M,,0000*6B
476,443,507,24.062500,1010.218752
$GPGGA,012704.000,4334.7607,N,14159.9683,E,1,11,1.0,49.0,M,31.5,M,,0000*6D
476,443,507,24.125000,1010.218752
$GPGGA,012706.000,4334.7607,N,14159.9683,E,1,11,1.0,49.0,M,31.5,M,,0000*6F
475,444,504,24.125000,1010.218752
$GPGGA,012708.000,4334.7607,N,14159.9683,E,1,11,1.0,49.0,M,31.5,M,,0000*61
476,443,505,24.125000,1011.859376
$GPGGA,012710.000,4334.7607,N,14159.9683,E,1,11,1.0,49.0,M,31.5,M,,0000*68
476,443,506,24.187500,1010.640624
$GPGGA,012712.000,4334.7607,N,14159.9683,E,1,11,1.0,49.0,M,31.5,M,,0000*6A
476,442,503,24.187500,1010.218752
$GPGGA,012714.000,4334.7607,N,14159.9683,E,1,11,1.0,49.0,M,31.5,M,,0000*6C
476,441,501,24.125000,1011.859376
$GPGGA,012716.000,4334.7607,N,14159.9683,E,1,11,1.0,49.0,M,31.5,M,,0000*6E
475,443,506,24.250000,1010.218752
$GPGGA,012718.000,4334.7607,N,14159.9683,E,1,11,1.0,49.0,M,31.5,M,,0000*60
476,442,503,24.250000,1009.406248
$GPGGA,012720.000,4334.7607,N,14159.9683,E,1,11,1.0,49.0,M,31.5,M,,0000*6B
475,444,504,24.250000,1009.828128
$GPGGA,012722.000,4334.7607,N,14159.9683,E,1,11,1.0,49.0,M,31.5,M,,0000*69
475,444,504,24.250000,1009.828128
$GPGGA,012724.000,4334.7607,N,14159.9683,E,1,11,1.0,49.0,M,31.5,M,,0000*6F
475,443,506,24.250000,1009.406248
$GPGGA,012726.000,4334.7607,N,14159.9683,E,1,11,1.0,49.0,M,31.5,M,,0000*6D
476,442,504,24.312504,1010.640624
$GPGGA,012728.000,4334.7607,N,14159.9683,E,1,11,1.0,49.0,M,31.5,M,,0000*63
475,443,506,24.312504,1011.078126
$GPGGA,012730.000,4334.7607,N,14159.9683,E,1,11,1.0,49.0,M,31.5,M,,0000*6A
474,441,500,24.375000,1009.828128
$GPGGA,012732.000,4334.7607,N,14159.9683,E,1,11,1.0,49.0,M,31.5,M,,0000*68
475,442,503,24.375000,1010.234376
$GPGGA,012734.000,4334.7607,N,14159.9683,E,1,11,1.0,49.0,M,31.5,M,,0000*6E
475,442,504,24.312504,1009.406248
$GPGGA,012736.000,4334.7607,N,14159.9683,E,1,11,1.0,49.0,M,31.5,M,,0000*6C
475,443,506,24.375000,1011.078126
$GPGGA,012738.000,4334.7607,N,14159.9683,E,1,11,1.0,49.0,M,31.5,M,,0000*62
474,441,500,24.437504,1008.984368
$GPGGA,012740.000,4334.7607,N,14159.9683,E,1,11,1.0,49.0,M,31.5,M,,0000*6D
475,442,503,24.500000,1010.234376
$GPGGA,012742.000,4334.7607,N,14159.9683,E,1,11,1.0,49.0,M,31.5,M,,0000*6F
471,439,503,24.562496,1009.421872
$GPGGA,012744.000,4334.7607,N,14159.9683,E,1,11,1.0,49.0,M,31.5,M,,0000*69
461,428,488,24.562496,1008.984368
$GPGGA,012746.000,4334.7607,N,14159.9683,E,1,11,1.0,49.0,M,31.5,M,,0000*6B
468,431,494,24.687504,1009.828128
$GPGGA,012748.000,4334.7609,N,14159.9689,E,1,11,1.0,52.2,M,31.5,M,,0000*69
470,435,497,24.750000,1008.984368
$GPGGA,012750.000,4334.7615,N,14159.9663,E,1,11,1.0,51.7,M,31.5,M,,0000*6F
471,437,497,24.750000,1007.750000
$GPGGA,012752.000,4334.7622,N,14159.9635,E,1,11,1.0,49.4,M,31.5,M,,0000*60
472,434,494,24.875008,1008.171876
$GPGGA,012754.000,4334.7648,N,14159.9607,E,1,11,1.0,47.2,M,31.5,M,,0000*63
471,437,496,25.000000,1005.703120
$GPGGA,012756.000,4334.7683,N,14159.9574,E,1,11,1.0,45.1,M,31.5,M,,0000*60
468,432,490,25.125000,1006.937504
$GPGGA,012758.000,4334.7728,N,14159.9531,E,1,11,1.0,42.6,M,31.5,M,,0000*6F
466,429,489,25.250000,1005.703120
$GPGGA,012800.000,4334.7778,N,14159.9457,E,1,11,1.0,40.3,M,31.5,M,,0000*6E
463,429,489,25.250000,1004.453128
$GPGGA,012802.000,4334.7827,N,14159.9377,E,1,11,1.0,37.8,M,31.5,M,,0000*67
458,423,485,25.250000,1003.234376
$GPGGA,012804.000,4334.7873,N,14159.9292,E,1,10,1.2,35.3,M,31.5,M,,0000*60
460,422,483,25.312504,1003.234376
$GPGGA,012806.000,4334.7935,N,14159.9238,E,1,11,1.0,34.0,M,31.5,M,,0000*60
471,434,493,25.375000,1002.000000
$GPGGA,012808.000,4334.7991,N,14159.9199,E,1,11,1.0,32.3,M,31.5,M,,0000*6D
470,433,492,25.375000,1000.750000
$GPGGA,012810.000,4334.8042,N,14159.9193,E,1,11,1.0,30.6,M,31.5,M,,0000*61
468,429,489,25.375000,1000.750000
$GPGGA,012812.000,4334.8085,N,14159.9165,E,1,11,1.0,28.5,M,31.5,M,,0000*6B
466,429,488,25.375000,999.515624
$GPGGA,012814.000,4334.8109,N,14159.9124,E,1,11,1.0,26.6,M,31.5,M,,0000*60
467,430,491,25.500000,999.906256
$GPGGA,012816.000,4334.8069,N,14159.9065,E,1,10,1.1,25.2,M,31.5,M,,0000*66
465,427,489,25.562496,999.093750
$GPGGA,012818.000,4334.8036,N,14159.9023,E,1,11,1.0,24.3,M,31.5,M,,0000*60
469,430,491,25.562496,997.453128
$GPGGA,012820.000,4334.8012,N,14159.8994,E,1,11,1.0,23.4,M,31.5,M,,0000*69
468,429,489,25.687504,999.515624
$GPGGA,012822.000,4334.7999,N,14159.8980,E,1,10,1.1,22.0,M,31.5,M,,0000*6E
463,427,489,25.750000,998.687504
$GPGGA,012824.000,4334.7994,N,14159.8975,E,1,10,1.1,21.5,M,31.5,M,,0000*69
475,437,496,25.812496,998.265624
$GPGGA,012826.000,4334.7994,N,14159.8975,E,1,11,1.0,21.5,M,31.5,M,,0000*6B
471,435,496,25.750000,996.609376
$GPGGA,012828.000,4334.7994,N,14159.8975,E,1,11,1.0,21.5,M,31.5,M,,0000*65
467,431,495,25.875008,999.515624
$GPGGA,012830.000,4334.7994,N,14159.8975,E,1,11,1.0,21.5,M,31.5,M,,0000*6C
466,429,490,25.875008,999.093750
$GPGGA,012832.000,4334.7994,N,14159.8975,E,1,11,1.0,21.5,M,31.5,M,,0000*6E
471,434,493,25.937504,997.859376
$GPGGA,012834.000,4334.7994,N,14159.8975,E,1,09,1.2,21.5,M,31.5,M,,0000*63
479,442,502,26.000000,997.031250
$GPGGA,012836.000,4334.7994,N,14159.8975,E,1,11,1.0,21.5,M,31.5,M,,0000*6A
478,440,498,25.937504,997.031250
$GPGGA,012838.000,4334.7994,N,14159.8975,E,1,11,1.0,21.5,M,31.5,M,,0000*64
473,434,494,26.000000,999.906256
$GPGGA,012840.000,4334.7994,N,14159.8975,E,1,11,1.0,21.5,M,31.5,M,,0000*6B
477,437,497,25.937504,998.687504
$GPGGA,012842.000,4334.7956,N,14159.9030,E,1,11,1.0,10.8,M,31.5,M,,0000*61
474,436,495,26.000000,997.031250
$GPGGA,012844.000,4334.7948,N,14159.9045,E,1,11,1.0,9.1,M,31.5,M,,0000*5B
476,436,494,26.000000,998.687504
$GPGGA,012846.000,4334.7943,N,14159.9052,E,1,11,1.0,8.2,M,31.5,M,,0000*56
479,441,500,25.937504,997.453128
$GPGGA,012848.000,4334.7943,N,14159.9052,E,1,11,1.0,8.2,M,31.5,M,,0000*58
479,442,503,25.937504,997.843744
$GPGGA,012850.000,4334.7943,N,14159.9052,E,1,11,1.0,8.2,M,31.5,M,,0000*51
470,433,493,25.937504,997.453128
$GPGGA,012852.000,4334.7943,N,14159.9052,E,1,11,1.0,8.2,M,31.5,M,,0000*53
477,437,496,25.937504,999.500000
$GPGGA,012854.000,4334.7943,N,14159.9052,E,1,11,1.0,8.2,M,31.5,M,,0000*55
470,432,490,26.000000,999.500000
$GPGGA,012856.000,4334.7943,N,14159.9052,E,1,11,1.0,8.2,M,31.5,M,,0000*57
468,427,489,26.000000,997.453128
$GPGGA,012858.000,4334.7943,N,14159.9052,E,1,11,1.0,8.2,M,31.5,M,,0000*59
460,421,482,25.875008,999.500000
$GPGGA,012900.000,4334.7943,N,14159.9052,E,1,10,1.0,8.2,M,31.5,M,,0000*54
465,423,486,25.937504,998.687504
$GPGGA,012902.000,4334.7943,N,14159.9052,E,1,11,1.0,8.2,M,31.5,M,,0000*57
463,426,486,25.937504,999.500000
$GPGGA,012904.000,4334.7912,N,14159.9110,E,1,11,1.0,-2.3,M,31.5,M,,0000*74
475,435,498,25.937504,999.906256
$GPGGA,012906.000,4334.7905,N,14159.9132,E,1,10,1.0,-3.4,M,31.5,M,,0000*77
520,467,524,25.875008,997.843744
$GPGGA,012908.000,4334.7905,N,14159.9132,E,1,11,1.0,-3.4,M,31.5,M,,0000*78
529,484,540,25.937504,1001.984368
$GPGGA,012910.000,4334.7897,N,14159.9152,E,1,11,1.0,-3.7,M,31.5,M,,0000*7E
505,466,462,26.062500,1003.625008
$GPGGA,012912.000,4334.7904,N,14159.9193,E,1,11,1.0,-4.5,M,31.5,M,,0000*7F
483,450,509,26.000000,1003.234376
$GPGGA,012914.000,4334.7904,N,14159.9233,E,1,11,1.0,0.8,M,31.5,M,,0000*54
497,456,514,26.000000,1004.875008
$GPGGA,012916.000,4334.7933,N,14159.9264,E,1,11,1.0,2.5,M,31.5,M,,0000*5F
498,456,513,26.000000,1004.046875
$GPGGA,012918.000,4334.7983,N,14159.9294,E,1,11,1.0,4.8,M,31.5,M,,0000*5E
512,468,527,26.000000,1004.453128
$GPGGA,012920.000,4334.8027,N,14159.9339,E,1,11,1.0,7.8,M,31.5,M,,0000*58
495,459,521,26.187500,1007.765632
$GPGGA,012922.000,4334.8083,N,14159.9413,E,1,11,1.0,8.6,M,31.5,M,,0000*5A
496,453,510,26.250000,1006.515624
$GPGGA,012924.000,4334.8126,N,14159.9498,E,1,11,1.0,13.1,M,31.5,M,,0000*6C
498,456,514,26.187500,1009.015625
$GPGGA,012926.000,4334.8141,N,14159.9560,E,1,11,1.0,19.3,M,31.5,M,,0000*61
422,382,453,26.250000,1010.265624
$GPGGA,012928.000,4334.8143,N,14159.9630,E,1,11,1.0,23.2,M,31.5,M,,0000*63
479,435,530,26.125000,1010.265624
$GPGGA,012930.000,4334.8138,N,14159.9707,E,1,11,1.0,26.1,M,31.5,M,,0000*65
552,492,550,26.187500,1011.484376
$GPGGA,012932.000,4334.8130,N,14159.9717,E,1,11,1.0,27.4,M,31.5,M,,0000*6A
544,500,558,26.125000,1010.265624
$GPGGA,012934.000,4334.8121,N,14159.9744,E,1,11,1.0,31.1,M,31.5,M,,0000*68
561,512,565,26.187500,1009.015625
$GPGGA,012936.000,4334.8114,N,14159.9752,E,1,11,1.0,33.3,M,31.5,M,,0000*6B
510,475,537,26.125000,1010.265624
$GPGGA,012938.000,4334.8106,N,14159.9750,E,1,11,1.0,34.6,M,31.5,M,,0000*66
531,489,549,26.125000,1009.015625
$GPGGA,012940.000,4334.8096,N,14159.9747,E,1,11,1.0,35.5,M,31.5,M,,0000*65
455,428,488,26.125000,1011.484376
$GPGGA,012942.000,4334.8088,N,14159.9747,E,1,11,1.0,36.8,M,31.5,M,,0000*66
409,378,442,26.062500,1010.265624
$GPGGA,012944.000,4334.8076,N,14159.9744,E,1,11,1.0,38.3,M,31.5,M,,0000*67
473,420,478,26.125000,1010.265624
$GPGGA,012946.000,4334.8063,N,14159.9745,E,1,11,1.0,39.4,M,31.5,M,,0000*66
489,441,500,26.125000,1009.015625
$GPGGA,012948.000,4334.8050,N,14159.9747,E,1,11,1.0,40.2,M,31.5,M,,0000*62
499,457,513,26.062500,1010.265624
$GPGGA,012950.000,4334.8035,N,14159.9756,E,1,11,1.0,42.1,M,31.5,M,,0000*69
476,439,505,26.062500,1009.421872
$GPGGA,012952.000,4334.8023,N,14159.9754,E,1,11,1.0,42.5,M,31.5,M,,0000*6A
466,424,482,26.000000,1009.421872
$GPGGA,012954.000,4334.8014,N,14159.9755,E,1,11,1.0,43.9,M,31.5,M,,0000*64
466,426,488,26.062500,1010.671872
$GPGGA,012956.000,4334.8001,N,14159.9756,E,1,11,1.0,44.1,M,31.5,M,,0000*6E
525,472,529,26.062500,1010.671872
$GPGGA,012958.000,4334.7987,N,14159.9756,E,1,11,1.0,44.1,M,31.5,M,,0000*68
478,442,504,26.062500,1011.093750
$GPGGA,013000.000,4334.7972,N,14159.9754,E,1,11,1.0,44.0,M,31.5,M,,0000*64
485,443,507,26.187500,1010.671872
$GPGGA,013002.000,4334.7960,N,14159.9756,E,1,11,1.0,44.0,M,31.5,M,,0000*67
510,466,524,26.187500,1011.484376
$GPGGA,013004.000,4334.7946,N,14159.9755,E,1,10,1.1,44.2,M,31.5,M,,0000*64
504,460,518,26.125000,1011.093750
$GPGGA,013006.000,4334.7932,N,14159.9753,E,1,11,1.0,44.5,M,31.5,M,,0000*64
487,451,510,26.187500,1010.265624
$GPGGA,013008.000,4334.7917,N,14159.9753,E,1,11,1.0,44.6,M,31.5,M,,0000*6E
508,464,520,26.375000,1009.421872
$GPGGA,013010.000,4334.7903,N,14159.9754,E,1,11,1.0,45.0,M,31.5,M,,0000*62
538,490,548,26.687504,1008.171876
$GPGGA,013012.000,4334.7888,N,14159.9751,E,1,11,1.0,44.9,M,31.5,M,,0000*6F
516,474,535,26.875008,1011.484376
$GPGGA,013014.000,4334.7871,N,14159.9750,E,1,11,1.0,45.0,M,31.5,M,,0000*66
495,461,521,26.937504,1009.015625
$GPGGA,013016.000,4334.7854,N,14159.9750,E,1,11,1.0,45.1,M,31.5,M,,0000*62
513,467,527,27.062500,1009.421872
$GPGGA,013018.000,4334.7839,N,14159.9749,E,1,11,1.0,45.2,M,31.5,M,,0000*6C
528,481,540,27.312504,1009.421872
$GPGGA,013020.000,4334.7823,N,14159.9749,E,1,11,1.0,45.3,M,31.5,M,,0000*6D
520,475,538,27.500000,1009.843744
$GPGGA,013022.000,4334.7807,N,14159.9748,E,1,11,1.0,45.4,M,31.5,M,,0000*6F
507,470,530,27.312504,1010.265624
$GPGGA,013024.000,4334.7793,N,14159.9748,E,1,11,1.0,45.4,M,31.5,M,,0000*6B
489,453,512,27.187500,1009.421872
$GPGGA,013026.000,4334.7777,N,14159.9749,E,1,11,1.0,45.9,M,31.5,M,,0000*6F
515,469,527,27.062500,1009.015625
$GPGGA,013028.000,4334.7762,N,14159.9748,E,1,11,1.0,46.1,M,31.5,M,,0000*6F
520,474,533,27.125000,1009.015625
$GPGGA,013030.000,4334.7746,N,14159.9752,E,1,11,1.0,46.6,M,31.5,M,,0000*6C
507,469,528,27.125000,1010.671872
$GPGGA,013032.000,4334.7731,N,14159.9752,E,1,11,1.0,46.6,M,31.5,M,,0000*6E
504,461,520,27.125000,1010.671872
$GPGGA,013034.000,4334.7716,N,14159.9754,E,1,11,1.0,46.9,M,31.5,M,,0000*64
498,456,513,27.062500,1009.421872
$GPGGA,013036.000,4334.7700,N,14159.9755,E,1,11,1.0,47.2,M,31.5,M,,0000*6A
522,473,530,27.062500,1010.671872
$GPGGA,013038.000,4334.7683,N,14159.9761,E,1,11,1.0,47.8,M,31.5,M,,0000*63
528,478,540,27.000000,1009.843744
$GPGGA,013040.000,4334.7668,N,14159.9762,E,1,11,1.0,48.3,M,31.5,M,,0000*6E
539,495,556,27.125000,1010.671872
$GPGGA,013042.000,4334.7652,N,14159.9762,E,1,11,1.0,49.5,M,31.5,M,,0000*62
462,433,472,27.062500,1011.484376
$GPGGA,013044.000,4334.7645,N,14159.9761,E,1,11,1.0,49.7,M,31.5,M,,0000*63
474,435,497,26.875008,1011.093750
$GPGGA,013046.000,4334.7625,N,14159.9759,E,1,11,1.0,50.7,M,31.5,M,,0000*64
519,471,534,26.937504,1009.421872
$GPGGA,013048.000,4334.7610,N,14159.9764,E,1,11,1.0,52.7,M,31.5,M,,0000*60
482,444,503,27.062500,1009.843744
$GPGGA,013050.000,4334.7599,N,14159.9766,E,1,11,1.0,53.1,M,31.5,M,,0000*6E
492,446,509,27.125000,1011.484376
$GPGGA,013052.000,4334.7590,N,14159.9767,E,1,11,1.0,52.8,M,31.5,M,,0000*6C
506,461,521,27.062500,1010.265624
$GPGGA,013054.000,4334.7590,N,14159.9767,E,1,11,1.0,52.8,M,31.5,M,,0000*6A
493,449,506,27.000000,1011.093750
$GPGGA,013056.000,4334.7590,N,14159.9767,E,1,11,1.0,52.8,M,31.5,M,,0000*68
543,492,549,27.000000,1011.484376
$GPGGA,013058.000,4334.7590,N,14159.9767,E,1,11,1.0,52.8,M,31.5,M,,0000*66
549,498,558,26.937504,1011.093750
$GPGGA,013100.000,4334.7590,N,14159.9767,E,1,11,1.0,52.8,M,31.5,M,,0000*6A
518,476,535,26.875008,1011.484376
$GPGGA,013102.000,4334.7590,N,14159.9767,E,1,11,1.0,52.8,M,31.5,M,,0000*68
521,476,536,26.875008,1008.171876
$GPGGA,013104.000,4334.7590,N,14159.9767,E,1,11,1.0,52.8,M,31.5,M,,0000*6E
529,481,538,26.750000,1010.265624
$GPGGA,013106.000,4334.7587,N,14159.9762,E,1,11,1.0,51.4,M,31.5,M,,0000*60
531,486,546,26.687504,1010.671872
$GPGGA,013108.000,4334.7584,N,14159.9762,E,1,11,1.0,51.6,M,31.5,M,,0000*6F
488,451,511,26.687504,1010.671872
$GPGGA,013110.000,4334.7584,N,14159.9762,E,1,11,1.0,51.6,M,31.5,M,,0000*66
477,439,503,26.625008,1009.421872
$GPGGA,013112.000,4334.7584,N,14159.9762,E,1,11,1.0,51.6,M,31.5,M,,0000*64
555,503,566,26.562496,1009.421872
$GPGGA,013114.000,4334.7584,N,14159.9762,E,1,11,1.0,51.6,M,31.5,M,,0000*62
485,450,509,26.562496,1009.421872
0,M,,0000*5C
497,475,518,26.062500,1010.484376
$GPGGA,044316.793,,,,,0,00,,,M,0.0,M,,0000*5F
505,483,520,26.125000,1011.703120
$GPGGA,044317.793,,,,,0,00,,,M,0.0,M,,0000*5E
499,481,509,26.125000,1012.953120
$GPGGA,044318.793,,,,,0,00,,,M,0.0,M,,0000*51
496,475,538,26.125000,1010.484376
$GPGGA,044319.793,,,,,0,00,,,M,0.0,M,,0000*50
498,478,521,26.125000,1012.953120
$GPGGA,044320.793,,,,,0,00,,,M,0.0,M,,0000*5A
492,472,535,26.125000,1011.703120
$GPGGA,044321.793,,,,,0,00,,,M,0.0,M,,0000*5B
505,482,509,26.062500,1011.312504
$GPGGA,044322.793,,,,,0,00,,,M,0.0,M,,0000*58
496,475,514,26.000000,1011.703120
$GPGGA,044323.793,,,,,0,00,,,M,0.0,M,,0000*59
496,475,537,26.062500,1011.312504
$GPGGA,044324.793,,,,,0,00,,,M,0.0,M,,0000*5E
498,478,526,26.125000,1010.062500
$GPGGA,044325.793,,,,,0,00,,,M,0.0,M,,0000*5F
494,476,535,26.062500,1012.953120
$GPGGA,044326.793,,,,,0,00,,,M,0.0,M,,0000*5C
505,483,520,26.062500,1011.312504
$GPGGA,044327.793,,,,,0,00,,,M,0.0,M,,0000*5D
498,478,514,26.062500,1011.312504
$GPGGA,044328.793,,,,,0,00,,,M,0.0,M,,0000*52
495,479,532,26.062500,1011.312504
$GPGGA,044329.793,,,,,0,00,,,M,0.0,M,,0000*53
503,485,511,26.062500,1011.312504
$GPGGA,044330.793,,,,,0,00,,,M,0.0,M,,0000*5B
500,480,531,26.062500,1011.312504
$GPGGA,044331.793,,,,,0,00,,,M,0.0,M,,0000*5A
507,487,504,26.062500,1010.062500
$GPGGA,044332.793,,,,,0,00,,,M,0.0,M,,0000*59
495,480,522,26.062500,1012.562496
$GPGGA,044333.793,,,,,0,00,,,M,0.0,M,,0000*58
499,481,524,26.062500,1012.140624
$GPGGA,044334.793,,,,,0,00,,,M,0.0,M,,0000*5F
503,484,511,26.062500,1011.312504
$GPGGA,044335.793,,,,,0,00,,,M,0.0,M,,0000*5E
497,477,535,26.000000,1012.531248
$GPGGA,044336.793,,,,,0,00,,,M,0.0,M,,0000*5D
495,478,512,26.000000,1011.312504
$GPGGA,044337.793,,,,,0,00,,,M,0.0,M,,0000*5C
490,472,535,26.062500,1011.312504
$GPGGA,044338.793,,,,,0,00,,,M,0.0,M,,0000*53
500,477,521,26.062500,1011.312504
$GPGGA,044339.793,,,,,0,00,,,M,0.0,M,,0000*52
500,478,520,26.000000,1011.312504
$GPGGA,044340.793,,,,,0,00,,,M,0.0,M,,0000*5C
498,478,528,26.062500,1011.312504
$GPGGA,044341.793,,,,,0,00,,,M,0.0,M,,0000*5D
507,488,504,26.000000,1010.062500
$GPGGA,044342.793,,,,,0,00,,,M,0.0,M,,0000*5E
495,479,517,26.000000,1012.953120
$GPGGA,044343.793,,,,,0,00,,,M,0.0,M,,0000*5F
499,481,526,26.000000,1011.312504
$GPGGA,044344.793,,,,,0,00,,,M,0.0,M,,0000*58
495,479,525,26.000000,1011.312504
$GPGGA,044345.793,,,,,0,00,,,M,0.0,M,,0000*59
497,477,530,26.000000,1011.312504
$GPGGA,044346.793,,,,,0,00,,,M,0.0,M,,0000*5A
498,477,511,26.000000,1011.703120
$GPGGA,044347.793,,,,,0,00,,,M,0.0,M,,0000*5B
489,470,530,26.000000,1010.062500
$GPGGA,044348.793,,,,,0,00,,,M,0.0,M,,0000*54
494,475,536,26.000000,1011.312504
$GPGGA,044349.793,,,,,0,00,,,M,0.0,M,,0000*55
496,474,524,26.000000,1011.312504
$GPGGA,044350.793,,,,,0,00,,,M,0.0,M,,0000*5D
495,478,534,26.000000,1011.703120
$GPGGA,044351.793,,,,,0,00,,,M,0.0,M,,0000*5C
505,484,510,25.937504,1010.062500
$GPGGA,044352.793,,,,,0,00,,,M,0.0,M,,0000*5F
494,477,522,26.000000,1012.531248
$GPGGA,044353.793,,,,,0,00,,,M,0.0,M,,0000*5E
497,476,539,26.000000,1012.531248
$GPGGA,044354.793,,,,,0,00,,,M,0.0,M,,0000*59
494,475,520,26.062500,1010.890624
$GPGGA,044355.793,,,,,0,00,,,M,0.0,M,,0000*58
493,474,539,25.937504,1010.062500
$GPGGA,044356.793,,,,,0,00,,,M,0.0,M,,0000*5B
501,479,515,25.937504,1011.312504
$GPGGA,044357.793,,,,,0,00,,,M,0.0,M,,0000*5A
495,479,523,26.000000,1011.312504
$GPGGA,044358.793,,,,,0,00,,,M,0.0,M,,0000*55
500,479,518,25.937504,1011.312504
$GPGGA,044359.793,,,,,0,00,,,M,0.0,M,,0000*54
491,475,520,26.000000,1011.312504
$GPGGA,044400.793,,,,,0,00,,,M,0.0,M,,0000*5F
496,475,542,26.000000,1011.312504
$GPGGA,044401.793,,,,,0,00,,,M,0.0,M,,0000*5E
499,480,525,26.000000,1011.312504
$GPGGA,044402.793,,,,,0,00,,,M,0.0,M,,0000*5D
497,476,538,26.000000,1012.531248
$GPGGA,044403.793,,,,,0,00,,,M,0.0,M,,0000*5C
499,480,515,26.000000,1011.312504
$GPGGA,044404.793,,,,,0,00,,,M,0.0,M,,0000*5B
489,470,536,26.000000,1011.312504
$GPGGA,044405.793,,,,,0,00,,,M,0.0,M,,0000*5A
497,476,540,26.000000,1011.312504
$GPGGA,044406.793,,,,,0,00,,,M,0.0,M,,0000*59
496,474,528,25.937504,1011.312504
$GPGGA,044407.793,,,,,0,00,,,M,0.0,M,,0000*58
505,483,506,25.937504,1011.312504
$GPGGA,044408.793,,,,,0,00,,,M,0.0,M,,0000*57
494,477,519,25.937504,1010.890624
$GPGGA,044409.793,,,,,0,00,,,M,0.0,M,,0000*56
495,479,538,26.000000,1011.703120
$GPGGA,044410.793,,,,,0,00,,,M,0.0,M,,0000*5E
500,479,518,25.937504,1011.312504
$GPGGA,044411.793,,,,,0,00,,,M,0.0,M,,0000*5F
496,476,527,26.000000,1011.312504
$GPGGA,044412.793,,,,,0,00,,,M,0.0,M,,0000*5C
501,480,519,25.937504,1011.703120
$GPGGA,044413.793,,,,,0,00,,,M,0.0,M,,0000*5D
501,479,504,25.937504,1011.312504
$GPGGA,044414.793,,,,,0,00,,,M,0.0,M,,0000*5A
489,471,535,25.937504,1011.312504
$GPGGA,044415.793,,,,,0,00,,,M,0.0,M,,0000*5B
492,471,539,25.937504,1010.062500
$GPGGA,044416.792,,,,,0,00,,,M,0.0,M,,0000*59
500,479,527,25.937504,1011.312504
$GPGGA,044417.793,,,,,0,00,,,M,0.0,M,,0000*59
498,479,514,25.937504,1011.312504
$GPGGA,044418.793,,,,,0,00,,,M,0.0,M,,0000*56
495,479,523,25.937504,1011.312504
$GPGGA,044419.794,,,,,0,00,,,M,0.0,M,,0000*50
500,480,532,26.000000,1011.703120
$GPGGA,044420.792,,,,,0,00,,,M,0.0,M,,0000*5C
496,474,517,25.937504,1012.140624
$GPGGA,044421.793,,,,,0,00,,,M,0.0,M,,0000*5C
486,468,532,25.937504,1010.890624
$GPGGA,044422.792,,,,,0,00,,,M,0.0,M,,0000*5E
488,466,528,25.937504,1010.062500
$GPGGA,044423.793,,,,,0,00,,,M,0.0,M,,0000*5E
501,478,533,26.000000,1011.312504
$GPGGA,044424.793,,,,,0,00,,,M,0.0,M,,0000*59
501,480,513,25.937504,1012.531248
$GPGGA,044425.792,,,,,0,00,,,M,0.0,M,,0000*59
493,474,525,25.937504,1011.312504
$GPGGA,044426.793,,,,,0,00,,,M,0.0,M,,0000*5B
493,474,540,26.000000,1011.312504
$GPGGA,044427.792,,,,,0,00,,,M,0.0,M,,0000*5B
500,478,516,25.937504,1012.531248
$GPGGA,044428.793,,,,,0,00,,,M,0.0,M,,0000*55
496,476,524,25.937504,1011.312504
$GPGGA,044429.793,,,,,0,00,,,M,0.0,M,,0000*54
497,476,539,25.937504,1011.312504
$GPGGA,044430.792,,,,,0,00,,,M,0.0,M,,0000*5D
500,479,531,25.937504,1012.531248
$GPGGA,044431.793,,,,,0,00,,,M,0.0,M,,0000*5D
504,482,512,25.937504,1011.312504
$GPGGA,044432.793,,,,,0,00,,,M,0.0,M,,0000*5E
501,481,505,25.937504,1011.312504
$GPGGA,044433.792,,,,,0,00,,,M,0.0,M,,0000*5E
492,473,535,25.937504,1011.312504
$GPGGA,044434.793,,,,,0,00,,,M,0.0,M,,0000*58
494,476,540,25.937504,1011.312504
$GPGGA,044435.793,,,,,0,00,,,M,0.0,M,,0000*59
502,481,510,25.937504,1011.312504
$GPGGA,044436.793,,,,,0,00,,,M,0.0,M,,0000*5A
502,483,510,25.937504,1013.781248
$GPGGA,044437.792,,,,,0,00,,,M,0.0,M,,0000*5A
496,475,529,25.937504,1011.312504
$GPGGA,044438.793,,,,,0,00,,,M,0.0,M,,0000*54
500,480,531,25.875008,1011.312504
$GPGGA,044439.793,,,,,0,00,,,M,0.0,M,,0000*55
501,480,517,25.937504,1010.062500
$GPGGA,044440.792,,,,,0,00,,,M,0.0,M,,0000*5A
493,474,525,25.937504,1011.312504
$GPGGA,044441.793,,,,,0,00,,,M,0.0,M,,0000*5A
493,474,540,25.937504,1011.312504
$GPGGA,044442.792,,,,,0,00,,,M,0.0,M,,0000*58
501,480,529,25.937504,1010.062500
$GPGGA,044443.793,,,,,0,00,,,M,0.0,M,,0000*58
506,485,506,25.875008,1011.312504
$GPGGA,044444.793,,,,,0,00,,,M,0.0,M,,0000*5F
495,479,517,25.875008,1012.531248
$GPGGA,044445.792,,,,,0,00,,,M,0.0,M,,0000*5F
493,476,539,25.875008,1010.062500
$GPGGA,044446.793,,,,,0,00,,,M,0.0,M,,0000*5D
498,478,529,25.875008,1011.312504
$GPGGA,044447.793,,,,,0,00,,,M,0.0,M,,0000*5C
494,476,529,25.875008,1011.312504
$GPGGA,044448.792,,,,,0,00,,,M,0.0,M,,0000*52
496,475,538,25.875008,1011.312504
$GPGGA,044449.793,,,,,0,00,,,M,0.0,M,,0000*52
502,483,523,25.875008,1010.890624
$GPGGA,044450.793,,,,,0,00,,,M,0.0,M,,0000*5A
500,479,508,25.875008,1012.531248
$GPGGA,044451.793,,,,,0,00,,,M,0.0,M,,0000*5B
489,471,534,25.875008,1011.703120
$GPGGA,044452.794,,,,,0,00,,,M,0.0,M,,0000*5F
491,474,540,25.875008,1011.312504
$GPGGA,044453.793,,,,,0,00,,,M,0.0,M,,0000*59
501,480,522,25.875008,1012.531248
$GPGGA,044454.793,,,,,0,00,,,M,0.0,M,,0000*5E
499,480,519,25.875008,1011.312504
$GPGGA,044455.794,,,,,0,00,,,M,0.0,M,,0000*58
499,480,529,25.937504,1010.062500
$GPGGA,044456.792,,,,,0,00,,,M,0.0,M,,0000*5D
503,484,513,25.875008,1011.312504
$GPGGA,044457.792,,,,,0,00,,,M,0.0,M,,0000*5C
495,479,514,25.812496,1011.312504
$GPGGA,044458.792,,,,,0,00,,,M,0.0,M,,0000*53
502,484,538,25.875008,1011.312504
$GPGGA,044459.792,,,,,0,00,,,M,0.0,M,,0000*52
505,484,507,25.812496,1011.703120
$GPGGA,044500.792,,,,,0,00,,,M,0.0,M,,0000*5F
496,476,522,25.812496,1012.531248
$GPGGA,044501.790,,,,,0,00,,,M,0.0,M,,0000*5C
492,472,535,25.875008,1010.890624
$GPGGA,044502.793,,,,,0,00,,,M,0.0,M,,0000*5C
495,477,534,25.875008,1011.312504
$GPGGA,044503.793,,,,,0,00,,,M,0.0,M,,0000*5D
496,474,530,25.875008,1012.531248
$GPGGA,044504.790,,,,,0,00,,,M,0.0,M,,0000*59
499,480,530,25.812496,1011.312504
$GPGGA,044505.793,,,,,0,00,,,M,0.0,M,,0000*5B
506,485,517,25.875008,1011.312504
$GPGGA,044506.792,,,,,0,00,,,M,0.0,M,,0000*59
508,488,517,25.875008,1011.312504
$GPGGA,044507.792,,,,,0,00,,,M,0.0,M,,0000*58
503,486,506,25.812496,1010.062500
$GPGGA,044508.792,,,,,0,00,,,M,0.0,M,,0000*57
492,474,526,25.812496,1011.312504
$GPGGA,044509.792,,,,,0,00,,,M,0.0,M,,0000*56
491,474,541,25.812496,1011.312504
$GPGGA,044510.792,,,,,0,00,,,M,0.0,M,,0000*5E
499,480,529,25.812496,1010.062500
$GPGGA,044511.793,,,,,0,00,,,M,0.0,M,,0000*5E
503,484,512,25.812496,1011.312504
$GPGGA,044512.793,,,,,0,00,,,M,0.0,M,,0000*5D
500,479,519,25.875008,1011.312504
$GPGGA,044513.793,,,,,0,00,,,M,0.0,M,,0000*5C
497,477,531,25.812496,1011.312504
$GPGGA,044514.793,,,,,0,00,,,M,0.0,M,,0000*5B
499,481,530,25.875008,1012.531248
$GPGGA,044515.793,,,,,0,00,,,M,0.0,M,,0000*5A
497,476,518,25.812496,1011.312504
$GPGGA,044516.792,,,,,0,00,,,M,0.0,M,,0000*58
491,474,528,25.812496,1010.890624
$GPGGA,044517.792,,,,,0,00,,,M,0.0,M,,0000*59
493,474,541,25.875008,1012.125000
$GPGGA,044518.792,,,,,0,00,,,M,0.0,M,,0000*56
502,482,515,25.812496,1010.062500
$GPGGA,044519.792,,,,,0,00,,,M,0.0,M,,0000*57
505,484,518,25.812496,1012.125000
$GPGGA,044520.792,,,,,0,00,,,M,0.0,M,,0000*5D
495,479,513,25.875008,1012.125000
$GPGGA,044521.792,,,,,0,00,,,M,0.0,M,,0000*5C
499,482,510,25.875008,1010.062500
$GPGGA,044522.792,,,,,0,00,,,M,0.0,M,,0000*5F
493,475,527,25.875008,1011.312504
$GPGGA,044523.792,,,,,0,00,,,M,0.0,M,,0000*5E
492,473,537,25.875008,1011.312504
$GPGGA,044524.792,,,,,0,00,,,M,0.0,M,,0000*59
499,480,537,25.812496,1011.312504
$GPGGA,044525.792,,,,,0,00,,,M,0.0,M,,0000*58
504,481,515,25.812496,1012.531248
$GPGGA,044526.793,,,,,0,00,,,M,0.0,M,,0000*5A
493,474,519,25.875008,1011.312504
$GPGGA,044527.792,,,,,0,00,,,M,0.0,M,,0000*5A
486,469,531,25.875008,1011.312504
$GPGGA,044528.793,,,,,0,00,,,M,0.0,M,,0000*54
484,464,523,25.812496,1011.312504
$GPGGA,044529.793,,,,,0,00,,,M,0.0,M,,0000*55
490,469,531,25.875008,1012.531248
$GPGGA,044530.792,,,,,0,00,,,M,0.0,M,,0000*5C
502,481,532,25.875008,1011.312504
$GPGGA,044531.792,,,,,0,00,,,M,0.0,M,,0000*5D
508,486,508,25.875008,1011.312504
$GPGGA,044532.792,,,,,0,00,,,M,0.0,M,,0000*5E
504,483,507,25.875008,1011.312504
$GPGGA,044533.793,,,,,0,00,,,M,0.0,M,,0000*5E
497,477,514,25.875008,1011.312504
$GPGGA,044534.793,,,,,0,00,,,M,0.0,M,,0000*59
494,476,531,25.875008,1011.312504
$GPGGA,044535.792,,,,,0,00,,,M,0.0,M,,0000*59
498,478,535,25.875008,1011.312504
$GPGGA,044536.793,,,,,0,00,,,M,0.0,M,,0000*5B
500,479,519,25.875008,1012.531248
$GPGGA,044537.792,,,,,0,00,,,M,0.0,M,,0000*5B
501,481,512,25.875008,1011.703120
$GPGGA,044538.793,,,,,0,00,,,M,0.0,M,,0000*55
494,477,526,25.937504,1011.312504
$GPGGA,044539.793,,,,,0,00,,,M,0.0,M,,0000*54
493,474,537,25.937504,1011.312504
$GPGGA,044540.792,,,,,0,00,,,M,0.0,M,,0000*5B
499,480,537,25.937504,1011.312504
$GPGGA,044541.793,,,,,0,00,,,M,0.0,M,,0000*5B
499,480,528,25.875008,1010.062500
$GPGGA,044542.792,,,,,0,00,,,M,0.0,M,,0000*59
496,475,519,25.937504,1011.312504
$GPGGA,044543.793,,,,,0,00,,,M,0.0,M,,0000*59
491,474,534,26.000000,1011.312504
$GPGGA,044544.793,,,,,0,00,,,M,0.0,M,,0000*5E
493,473,538,25.937504,1012.531248
$GPGGA,044545.792,,,,,0,00,,,M,0.0,M,,0000*5E
503,484,529,25.937504,1011.703120
$GPGGA,044546.793,,,,,0,00,,,M,0.0,M,,0000*5C
510,490,506,25.937504,1012.531248
$GPGGA,044547.792,,,,,0,00,,,M,0.0,M,,0000*5C
505,485,505,25.937504,1011.312504
$GPGGA,044548.793,,,,,0,00,,,M,0.0,M,,0000*52
493,476,541,26.000000,1011.703120
$GPGGA,044549.793,,,,,0,00,,,M,0.0,M,,0000*53
495,478,536,25.937504,1011.703120
$GPGGA,044550.792,,,,,0,00,,,M,0.0,M,,0000*5A
501,480,524,26.000000,1011.703120
$GPGGA,044551.793,,,,,0,00,,,M,0.0,M,,0000*5A
500,478,521,26.000000,1011.703120
$GPGGA,044552.792,,,,,0,00,,,M,0.0,M,,0000*58
495,479,524,26.000000,1010.484376
$GPGGA,044553.793,,,,,0,00,,,M,0.0,M,,0000*58
495,479,528,26.000000,1010.890624
$GPGGA,044554.793,,,,,0,00,,,M,0.0,M,,0000*5F
503,485,509,26.000000,1011.312504
$GPGGA,044555.792,,,,,0,00,,,M,0.0,M,,0000*5F
496,476,518,26.000000,1011.703120
$GPGGA,044556.793,,,,,0,00,,,M,0.0,M,,0000*5D
489,470,536,26.000000,1012.140624
$GPGGA,044557.792,,,,,0,00,,,M,0.0,M,,0000*5D
490,471,539,26.062500,1011.312504
$GPGGA,044558.792,,,,,0,00,,,M,0.0,M,,0000*52
495,478,545,26.062500,1010.484376
$GPGGA,044559.793,,,,,0,00,,,M,0.0,M,,0000*52
504,482,525,26.062500,1011.312504
$GPGGA,044600.792,,,,,0,00,,,M,0.0,M,,0000*5C
505,484,506,26.062500,1012.140624
$GPGGA,044601.792,,,,,0,00,,,M,0.0,M,,0000*5D
497,476,519,26.125000,1011.703120
$GPGGA,044602.792,,,,,0,00,,,M,0.0,M,,0000*5E
491,474,536,26.062500,1012.140624
$GPGGA,044603.792,,,,,0,00,,,M,0.0,M,,0000*5F
497,476,534,26.062500,1011.703120
$GPGGA,044604.792,,,,,0,00,,,M,0.0,M,,0000*58
499,479,520,26.062500,1012.140624
$GPGGA,044605.792,,,,,0,00,,,M,0.0,M,,0000*59
493,474,528,26.125000,1011.703120
$GPGGA,044606.792,,,,,0,00,,,M,0.0,M,,0000*5A
491,474,540,26.125000,1010.890624
$GPGGA,044607.792,,,,,0,00,,,M,0.0,M,,0000*5B
497,476,539,26.125000,1011.703120
$GPGGA,044608.792,,,,,0,00,,,M,0.0,M,,0000*54
506,484,502,26.125000,1011.703120
$GPGGA,044609.792,,,,,0,00,,,M,0.0,M,,0000*55
511,492,500,26.125000,1011.703120
$GPGGA,044610.792,,,,,0,00,,,M,0.0,M,,0000*5D
489,472,536,26.125000,1010.484376
$GPGGA,044611.792,,,,,0,00,,,M,0.0,M,,0000*5C
486,468,532,26.125000,1010.890624
$GPGGA,044612.792,,,,,0,00,,,M,0.0,M,,0000*5F
489,467,532,26.187500,1010.890624
$GPGGA,044613.792,,,,,0,00,,,M,0.0,M,,0000*5E
493,472,534,26.250000,1011.312504
$GPGGA,044614.792,,,,,0,00,,,M,0.0,M,,0000*59
501,478,529,26.187500,1012.140624
$GPGGA,044615.792,,,,,0,00,,,M,0.0,M,,0000*58
502,482,511,26.187500,1012.140624
$GPGGA,044616.792,,,,,0,00,,,M,0.0,M,,0000*5B
498,478,513,26.250000,1010.484376
$GPGGA,044617.792,,,,,0,00,,,M,0.0,M,,0000*5A
496,475,542,26.187500,1011.734368
$GPGGA,044618.792,,,,,0,00,,,M,0.0,M,,0000*55
497,476,537,26.250000,1012.953120
$GPGGA,044619.792,,,,,0,00,,,M,0.0,M,,0000*54
496,474,539,26.250000,1011.312504
$GPGGA,044620.792,,,,,0,00,,,M,0.0,M,,0000*5E
498,477,529,26.312504,1011.734368
$GPGGA,044621.792,,,,,0,00,,,M,0.0,M,,0000*5F
502,482,517,26.250000,1011.312504
$GPGGA,044622.792,,,,,0,00,,,M,0.0,M,,0000*5C
504,482,510,26.312504,1012.562496
$GPGGA,044623.792,,,,,0,00,,,M,0.0,M,,0000*5D
498,478,512,26.312504,1012.953120
$GPGGA,044624.792,,,,,0,00,,,M,0.0,M,,0000*5A
493,474,527,26.312504,1011.734368
$GPGGA,044625.792,,,,,0,00,,,M,0.0,M,,0000*5B
490,471,535,26.312504,1011.734368
$GPGGA,044626.792,,,,,0,00,,,M,0.0,M,,0000*58
490,471,538,26.375000,1012.140624
$GPGGA,044627.792,,,,,0,00,,,M,0.0,M,,0000*59
494,475,542,26.375000,1012.562496
$GPGGA,044628.792,,,,,0,00,,,M,0.0,M,,0000*56
498,477,527,26.375000,1011.734368
$GPGGA,044629.792,,,,,0,00,,,M,0.0,M,,0000*57
501,479,520,26.375000,1012.562496
$GPGGA,044630.792,,,,,0,00,,,M,0.0,M,,0000*5F
498,478,516,26.437504,1012.562496
$GPGGA,044631.792,,,,,0,00,,,M,0.0,M,,0000*5E
499,480,518,26.437504,1012.953120
$GPGGA,044632.792,,,,,0,00,,,M,0.0,M,,0000*5D
497,475,522,26.437504,1011.734368
$GPGGA,044633.792,,,,,0,00,,,M,0.0,M,,0000*5C
495,477,527,26.437504,1011.734368
$GPGGA,044634.792,,,,,0,00,,,M,0.0,M,,0000*5B
497,475,527,26.500000,1012.125000
$GPGGA,044635.792,,,,,0,00,,,M,0.0,M,,0000*5A
498,477,522,26.500000,1012.531248
$GPGGA,044636.792,,,,,0,00,,,M,0.0,M,,0000*59
497,475,519,26.500000,1011.734368
$GPGGA,044637.792,,,,,0,00,,,M,0.0,M,,0000*58
493,473,530,26.562496,1011.734368
$GPGGA,044638.792,,,,,0,00,,,M,0.0,M,,0000*57
492,470,536,26.562496,1011.296872
$GPGGA,044639.792,,,,,0,00,,,M,0.0,M,,0000*56
500,476,528,26.562496,1012.953120
$GPGGA,044640.792,,,,,0,00,,,M,0.0,M,,0000*58
504,480,515,26.562496,1011.734368
$GPGGA,044641.792,,,,,0,00,,,M,0.0,M,,0000*59
503,484,510,26.625008,1012.531248
$GPGGA,044642.792,,,,,0,00,,,M,0.0,M,,0000*5A
506,485,510,26.625008,1011.734368
$GPGGA,044643.792,,,,,0,00,,,M,0.0,M,,0000*5B
504,481,505,26.625008,1012.125000
$GPGGA,044644.792,,,,,0,00,,,M,0.0,M,,0000*5C
491,474,521,26.687504,1012.125000
$GPGGA,044645.792,,,,,0,00,,,M,0.0,M,,0000*5D
492,471,536,26.625008,1011.296872
$GPGGA,044646.792,,,,,0,00,,,M,0.0,M,,0000*5E
503,483,529,26.687504,1012.968752
$GPGGA,044647.792,,,,,0,00,,,M,0.0,M,,0000*5F
511,491,506,26.687504,1012.531248
$GPGGA,044648.792,,,,,0,00,,,M,0.0,M,,0000*50
508,488,516,26.687504,1012.531248
$GPGGA,044649.792,,,,,0,00,,,M,0.0,M,,0000*51
507,488,506,26.750000,1011.296872
$GPGGA,044650.792,,,,,0,00,,,M,0.0,M,,0000*59
499,480,508,26.750000,1012.125000
$GPGGA,044651.792,,,,,0,00,,,M,0.0,M,,0000*58
491,473,529,26.750000,1012.531248
$GPGGA,044652.792,,,,,0,00,,,M,0.0,M,,0000*5B
488,466,529,26.812496,1013.375000
$GPGGA,044653.792,,,,,0,00,,,M,0.0,M,,0000*5A
493,471,538,26.812496,1011.734368
$GPGGA,044654.792,,,,,0,00,,,M,0.0,M,,0000*5D
499,478,524,26.812496,1012.125000
$GPGGA,044655.792,,,,,0,00,,,M,0.0,M,,0000*5C
496,473,526,26.812496,1011.734368
$GPGGA,044656.792,,,,,0,00,,,M,0.0,M,,0000*5F
491,471,535,26.875008,1012.125000
$GPGGA,044657.792,,,,,0,00,,,M,0.0,M,,0000*5E
494,474,537,26.937504,1011.734368
$GPGGA,044658.792,,,,,0,00,,,M,0.0,M,,0000*51
499,479,527,26.937504,1012.125000
$GPGGA,044659.792,,,,,0,00,,,M,0.0,M,,0000*50
498,477,513,26.937504,1011.734368
$GPGGA,044700.792,,,,,0,00,,,M,0.0,M,,0000*5D
499,479,512,26.937504,1010.875008
$GPGGA,044701.792,,,,,0,00,,,M,0.0,M,,0000*5C
493,473,537,27.000000,1011.734368
$GPGGA,044702.793,,,,,0,00,,,M,0.0,M,,0000*5E
489,468,531,27.000000,1012.125000
$GPGGA,044703.792,,,,,0,00,,,M,0.0,M,,0000*5E
495,475,542,27.000000,1010.875008
$GPGGA,044704.792,,,,,0,00,,,M,0.0,M,,0000*59
501,478,526,27.062500,1012.125000
$GPGGA,044705.794,,,,,0,00,,,M,0.0,M,,0000*5E
505,481,513,27.062500,1012.125000
$GPGGA,044706.792,,,,,0,00,,,M,0.0,M,,0000*5B
492,471,517,27.062500,1012.125000
$GPGGA,044707.792,,,,,0,00,,,M,0.0,M,,0000*5A
488,466,529,27.125000,1012.531248
$GPGGA,044708.792,,,,,0,00,,,M,0.0,M,,0000*55
501,476,529,27.125000,1010.875008
$GPGGA,044709.792,,,,,0,00,,,M,0.0,M,,0000*54
504,478,507,27.125000,1012.125000
$GPGGA,044710.792,,,,,0,00,,,M,0.0,M,,0000*5C
505,482,507,27.187500,1011.296872
$GPGGA,044711.792,,,,,0,00,,,M,0.0,M,,0000*5D
498,477,518,27.187500,1011.296872
$GPGGA,044712.792,,,,,0,00,,,M,0.0,M,,0000*5E
487,469,534,27.187500,1011.296872
$GPGGA,044713.792,,,,,0,00,,,M,0.0,M,,0000*5F
491,470,535,27.250000,1011.296872
$GPGGA,044714.792,,,,,0,00,,,M,0.0,M,,0000*58
495,475,530,27.250000,1012.531248
$GPGGA,044715.791,,,,,0,00,,,M,0.0,M,,0000*5A
501,478,517,27.250000,1011.296872
$GPGGA,044716.792,,,,,0,00,,,M,0.0,M,,0000*5A
495,477,521,27.312504,1011.734368
$GPGGA,044717.791,,,,,0,00,,,M,0.0,M,,0000*58
496,472,535,27.312504,1011.734368
$GPGGA,044718.792,,,,,0,00,,,M,0.0,M,,0000*54
496,471,532,27.375000,1011.734368
$GPGGA,044719.792,,,,,0,00,,,M,0.0,M,,0000*55
493,471,533,27.312504,1011.296872
$GPGGA,044720.792,,,,,0,00,,,M,0.0,M,,0000*5F
494,473,529,27.437504,1012.953120
$GPGGA,044721.792,,,,,0,00,,,M,0.0,M,,0000*5E
496,471,527,27.437504,1012.125000
$GPGGA,044722.792,,,,,0,00,,,M,0.0,M,,0000*5D
495,475,528,27.437504,1011.734368
$GPGGA,044723.792,,,,,0,00,,,M,0.0,M,,0000*5C
494,474,528,27.437504,1010.875008
$GPGGA,044724.792,,,,,0,00,,,M,0.0,M,,0000*5B
496,471,531,27.500000,1010.484376
$GPGGA,044725.792,,,,,0,00,,,M,0.0,M,,0000*5A
494,473,532,27.500000,1010.875008
$GPGGA,044726.792,,,,,0,00,,,M,0.0,M,,0000*59
493,470,536,27.562496,1011.296872
$GPGGA,044727.791,,,,,0,00,,,M,0.0,M,,0000*5B
494,472,534,27.562496,1013.375000
$GPGGA,044728.792,,,,,0,00,,,M,0.0,M,,0000*57
496,470,536,27.562496,1012.531248
$GPGGA,044729.792,,,,,0,00,,,M,0.0,M,,0000*56
496,470,526,27.687504,1011.296872
$GPGGA,044730.791,,,,,0,00,,,M,0.0,M,,0000*5D
492,468,531,27.562496,1011.296872
$GPGGA,044731.792,,,,,0,00,,,M,0.0,M,,0000*5F
486,464,523,27.687504,1011.296872
$GPGGA,044732.791,,,,,0,00,,,M,0.0,M,,0000*5F
491,468,528,27.687504,1012.531248
$GPGGA,044733.792,,,,,0,00,,,M,0.0,M,,0000*5D
487,466,528,27.687504,1011.296872
$GPGGA,044734.793,,,,,0,00,,,M,0.0,M,,0000*5B
489,464,523,27.750000,1011.296872
$GPGGA,044735.791,,,,,0,00,,,M,0.0,M,,0000*58
498,471,510,27.750000,1011.296872
$GPGGA,044736.792,,,,,0,00,,,M,0.0,M,,0000*58
505,480,514,27.750000,1011.296872
$GPGGA,044737.791,,,,,0,00,,,M,0.0,M,,0000*5A
486,465,527,27.812496,1012.531248
$GPGGA,044738.792,,,,,0,00,,,M,0.0,M,,0000*56
482,459,523,27.812496,1011.687504
$GPGGA,044739.792,,,,,0,00,,,M,0.0,M,,0000*57
482,458,520,27.875008,1010.046875
$GPGGA,044740.791,,,,,0,00,,,M,0.0,M,,0000*5A
485,460,520,27.875008,1011.687504
$GPGGA,044741.792,,,,,0,00,,,M,0.0,M,,0000*58
487,464,523,27.875008,1011.687504
$GPGGA,044742.791,,,,,0,00,,,M,0.0,M,,0000*58
500,472,534,27.937504,1012.531248
$GPGGA,044743.792,,,,,0,00,,,M,0.0,M,,0000*5A
504,476,512,27.937504,1012.937504
$GPGGA,044744.793,,,,,0,00,,,M,0.0,M,,0000*5C
502,478,503,28.062500,1011.687504
$GPGGA,044745.791,,,,,0,00,,,M,0.0,M,,0000*5F
488,465,528,28.000000,1011.296872
$GPGGA,044746.792,,,,,0,00,,,M,0.0,M,,0000*5F
482,459,523,28.062500,1011.296872
$GPGGA,044747.791,,,,,0,00,,,M,0.0,M,,0000*5D
488,462,525,28.062500,1012.125000
$GPGGA,044748.792,,,,,0,00,,,M,0.0,M,,0000*51
496,468,528,28.062500,1012.531248
$GPGGA,044749.793,,,,,0,00,,,M,0.0,M,,0000*51
502,475,518,28.125000,1011.687504
$GPGGA,044750.791,,,,,0,00,,,M,0.0,M,,0000*5B
496,470,514,28.187500,1012.531248
$GPGGA,044751.792,,,,,0,00,,,M,0.0,M,,0000*59
489,465,525,28.125000,1012.531248
$GPGGA,044752.791,,,,,0,00,,,M,0.0,M,,0000*59
484,459,523,28.250000,1012.531248
$GPGGA,044753.792,,,,,0,00,,,M,0.0,M,,0000*5B
485,460,520,28.250000,1012.937504
$GPGGA,044754.792,,,,,0,00,,,M,0.0,M,,0000*5C
493,467,530,28.312504,1012.531248
$GPGGA,044755.791,,,,,0,00,,,M,0.0,M,,0000*5E
502,476,518,28.312504,1011.687504
$GPGGA,044756.792,,,,,0,00,,,M,0.0,M,,0000*5E
501,475,507,28.312504,1011.296872
$GPGGA,044757.791,,,,,0,00,,,M,0.0,M,,0000*5C
485,463,529,28.312504,1011.687504
$GPGGA,044758.792,,,,,0,00,,,M,0.0,M,,0000*50
482,458,521,28.375000,1012.937504
$GPGGA,044759.792,,,,,0,00,,,M,0.0,M,,0000*51
491,466,527,28.437504,1012.937504
$GPGGA,044800.791,,,,,0,00,,,M,0.0,M,,0000*51
502,475,512,28.437504,1011.687504
$GPGGA,044801.792,,,,,0,00,,,M,0.0,M,,0000*53
501,475,507,28.500000,1010.437504
$GPGGA,044802.791,,,,,0,00,,,M,0.0,M,,0000*53
499,476,507,28.500000,1010.437504
$GPGGA,044803.792,,,,,0,00,,,M,0.0,M,,0000*51
490,466,522,28.562496,1012.109376
$GPGGA,044804.792,,,,,0,00,,,M,0.0,M,,0000*56
482,459,523,28.562496,1012.109376
$GPGGA,044805.791,,,,,0,00,,,M,0.0,M,,0000*54
491,467,530,28.625008,1011.687504
$GPGGA,044806.791,,,,,0,00,,,M,0.0,M,,0000*57
502,476,528,28.625008,1012.109376
$GPGGA,044807.790,,,,,0,00,,,M,0.0,M,,0000*57
503,479,509,28.625008,1010.859376
$GPGGA,044808.791,,,,,0,00,,,M,0.0,M,,0000*59
496,469,510,28.687504,1012.109376
$GPGGA,044809.791,,,,,0,00,,,M,0.0,M,,0000*58
485,460,522,28.687504,1009.187500
$GPGGA,044810.790,,,,,0,00,,,M,0.0,M,,0000*51
480,453,514,28.750000,1010.859376
$GPGGA,044811.791,,,,,0,00,,,M,0.0,M,,0000*51
490,462,524,28.750000,1012.109376
$GPGGA,044812.790,,,,,0,00,,,M,0.0,M,,0000*53
502,474,519,28.812496,1012.109376
$GPGGA,044813.791,,,,,0,00,,,M,0.0,M,,0000*53
502,476,509,28.812496,1011.265624
$GPGGA,044814.791,,,,,0,00,,,M,0.0,M,,0000*54
491,468,522,28.875008,1011.265624
$GPGGA,044815.790,,,,,0,00,,,M,0.0,M,,0000*54
483,460,520,28.875008,1011.265624
$GPGGA,044816.791,,,,,0,00,,,M,0.0,M,,0000*56
487,462,524,28.875008,1011.671872
$GPGGA,044817.790,,,,,0,00,,,M,0.0,M,,0000*56
495,470,534,28.937504,1010.828128
$GPGGA,044818.791,,,,,0,00,,,M,0.0,M,,0000*58
498,471,516,29.000000,1012.109376
$GPGGA,044819.791,,,,,0,00,,,M,0.0,M,,0000*59
493,468,531,29.000000,1012.109376
$GPGGA,044820.790,,,,,0,00,,,M,0.0,M,,0000*52
490,464,523,29.000000,1012.937504
$GPGGA,044821.791,,,,,0,00,,,M,0.0,M,,0000*52
490,463,530,29.062500,1012.109376
$GPGGA,044822.792,,,,,0,00,,,M,0.0,M,,0000*52
491,466,530,29.125000,1012.109376
$GPGGA,044823.791,,,,,0,00,,,M,0.0,M,,0000*50
488,460,520,29.125000,1011.671872
$GPGGA,044824.791,,,,,0,00,,,M,0.0,M,,0000*57
490,462,526,29.187500,1012.109376
$GPGGA,044825.792,,,,,0,00,,,M,0.0,M,,0000*55
488,459,523,29.250000,1010.828128
$GPGGA,044826.791,,,,,0,00,,,M,0.0,M,,0000*55
495,469,532,29.187500,1012.109376
$GPGGA,044827.790,,,,,0,00,,,M,0.0,M,,0000*55
497,468,530,29.250000,1012.109376
$GPGGA,044828.791,,,,,0,00,,,M,0.0,M,,0000*5B
489,461,525,29.250000,1011.250000
$GPGGA,044829.791,,,,,0,00,,,M,0.0,M,,0000*5A
480,452,511,29.312504,1011.250000
$GPGGA,044830.790,,,,,0,00,,,M,0.0,M,,0000*53
478,453,512,29.375000,1012.109376
$GPGGA,044831.791,,,,,0,00,,,M,0.0,M,,0000*53
481,452,511,29.375000,1012.921872
$GPGGA,044832.790,,,,,0,00,,,M,0.0,M,,0000*51
492,461,521,29.375000,1012.500000
$GPGGA,044833.791,,,,,0,00,,,M,0.0,M,,0000*51
502,472,514,29.375000,1012.921872
$GPGGA,044834.792,,,,,0,00,,,M,0.0,M,,0000*55
502,473,506,29.437504,1012.062500
$GPGGA,044835.791,,,,,0,00,,,M,0.0,M,,0000*57
481,455,519,29.500000,1012.500000
$GPGGA,044836.791,,,,,0,00,,,M,0.0,M,,0000*54
477,452,511,29.500000,1010.812496
$GPGGA,044837.792,,,,,0,00,,,M,0.0,M,,0000*56
480,449,509,29.562496,1010.406248
$GPGGA,044838.791,,,,,0,00,,,M,0.0,M,,0000*5A
499,468,529,29.562496,1012.062500
$GPGGA,044839.791,,,,,0,00,,,M,0.0,M,,0000*5B
500,468,510,29.625008,1012.500000
$GPGGA,044840.792,,,,,0,00,,,M,0.0,M,,0000*56
490,463,521,29.562496,1011.671872
$GPGGA,044841.791,,,,,0,00,,,M,0.0,M,,0000*54
481,454,515,29.625008,1011.671872
$GPGGA,044842.790,,,,,0,00,,,M,0.0,M,,0000*56
487,460,519,29.625008,1012.484376
$GPGGA,044843.791,,,,,0,00,,,M,0.0,M,,0000*56
495,467,532,29.687504,1012.484376
$GPGGA,044844.791,,,,,0,00,,,M,0.0,M,,0000*51
494,467,525,29.750000,1013.734368
$GPGGA,044845.790,,,,,0,00,,,M,0.0,M,,0000*51
490,463,529,29.750000,1009.156252
$GPGGA,044846.791,,,,,0,00,,,M,0.0,M,,0000*53
488,458,520,29.750000,1011.234376
$GPGGA,044847.790,,,,,0,00,,,M,0.0,M,,0000*53
