Start EEPROM Read
$GPGGA,002402.561,,,,,0,00,,,M,0.0,M,,0000*50
480,492,575,19.125000,1010.656256
$GPGGA,002404.245,4334.7532,N,14159.9739,E,1,05,3.7,30.8,M,31.5,M,,0000*6F
506,519,580,19.125000,1011.453128
$GPGGA,002406.000,4334.7671,N,14159.9774,E,1,09,1.4,37.1,M,31.5,M,,0000*60
499,543,581,19.125000,1011.843744
$GPGGA,002408.000,4334.7671,N,14159.9774,E,1,10,1.0,37.1,M,31.5,M,,0000*62
493,539,580,19.125000,1011.843744
$GPGGA,002410.000,4334.7671,N,14159.9774,E,1,10,1.0,37.1,M,31.5,M,,0000*6B
521,529,574,19.125000,1011.843744
$GPGGA,002412.000,4334.7671,N,14159.9774,E,1,10,1.0,37.1,M,31.5,M,,0000*69
513,518,562,19.125000,1011.843744
$GPGGA,002414.000,4334.7671,N,14159.9774,E,1,10,1.0,37.1,M,31.5,M,,0000*6F
511,492,546,19.187500,1010.656256
$GPGGA,002416.000,4334.7671,N,14159.9774,E,1,10,1.0,37.1,M,31.5,M,,0000*6D
509,491,552,19.125000,1011.843744
$GPGGA,002418.000,4334.7613,N,14159.9739,E,1,10,1.0,51.2,M,31.5,M,,0000*6D
488,530,575,19.125000,1011.843744
$GPGGA,002420.000,4334.7618,N,14159.9743,E,1,10,1.0,51.6,M,31.5,M,,0000*64
491,516,569,19.125000,1011.453128
$GPGGA,002422.000,4334.7623,N,14159.9752,E,1,10,1.0,50.8,M,31.5,M,,0000*61
517,501,543,19.125000,1010.656256
$GPGGA,002424.000,4334.7621,N,14159.9754,E,1,10,1.0,49.7,M,31.5,M,,0000*64
548,460,519,19.187500,1023.000000
$GPGGA,002426.000,4334.7621,N,14159.9754,E,1,10,1.0,49.8,M,31.5,M,,0000*69
522,519,572,19.187500,1011.453128
$GPGGA,002428.000,4334.7624,N,14159.9759,E,1,10,1.0,48.9,M,31.5,M,,0000*6F
490,494,543,19.187500,1011.453128
$GPGGA,002430.000,4334.7630,N,14159.9762,E,1,10,1.0,48.4,M,31.5,M,,0000*66
512,533,562,19.250000,1011.046875
$GPGGA,002432.000,4334.7639,N,14159.9767,E,1,10,1.0,48.0,M,31.5,M,,0000*6C
490,522,574,19.312504,1012.640624
$GPGGA,002434.000,4334.7646,N,14159.9775,E,1,10,1.0,47.5,M,31.5,M,,0000*6B
513,513,558,19.250000,1010.656256
$GPGGA,002436.000,4334.7654,N,14159.9781,E,1,10,1.0,47.5,M,31.5,M,,0000*61
519,483,540,19.312504,1011.843744
$GPGGA,002438.000,4334.7656,N,14159.9784,E,1,10,1.0,46.7,M,31.5,M,,0000*6B
528,529,580,19.250000,1011.453128
$GPGGA,002440.000,4334.7661,N,14159.9788,E,1,10,1.0,47.2,M,31.5,M,,0000*68
526,480,539,19.312504,1011.453128
$GPGGA,002442.000,4334.7667,N,14159.9794,E,1,10,1.0,47.5,M,31.5,M,,0000*66
531,477,533,19.312504,1010.656256
$GPGGA,002444.000,4334.7680,N,14159.9800,E,1,10,1.0,47.5,M,31.5,M,,0000*6B
470,531,571,19.375000,1011.046875
$GPGGA,002446.000,4334.7690,N,14159.9806,E,1,10,1.0,47.9,M,31.5,M,,0000*62
508,546,580,19.375000,1013.031250
$GPGGA,002448.000,4334.7699,N,14159.9811,E,1,10,1.0,47.4,M,31.5,M,,0000*6E
495,501,555,19.437504,1010.656256
$GPGGA,002450.000,4334.7705,N,14159.9815,E,1,10,1.0,47.4,M,31.5,M,,0000*67
521,488,565,19.437504,1010.281248
$GPGGA,002452.000,4334.7708,N,14159.9818,E,1,10,1.0,47.3,M,31.5,M,,0000*62
503,506,565,19.375000,1011.046875
$GPGGA,002454.000,4334.7712,N,14159.9824,E,1,10,1.0,47.3,M,31.5,M,,0000*60
517,530,573,19.437504,1012.250000
$GPGGA,002456.000,4334.7716,N,14159.9829,E,1,10,1.0,47.1,M,31.5,M,,0000*69
530,526,582,19.500000,1011.843744
$GPGGA,002458.000,4334.7720,N,14159.9835,E,1,10,1.0,47.1,M,31.5,M,,0000*6F
527,514,563,19.437504,1011.046875
$GPGGA,002500.000,4334.7723,N,14159.9841,E,1,10,1.0,47.0,M,31.5,M,,0000*62
519,487,536,19.500000,1011.046875
$GPGGA,002502.000,4334.7725,N,14159.9843,E,1,10,1.0,47.1,M,31.5,M,,0000*65
516,514,567,19.500000,1011.843744
$GPGGA,002504.000,4334.7725,N,14159.9843,E,1,10,1.0,47.1,M,31.5,M,,0000*63
498,500,549,19.500000,1012.640624
$GPGGA,002506.000,4334.7725,N,14159.9843,E,1,10,1.0,47.1,M,31.5,M,,0000*61
533,536,583,19.500000,1009.468752
$GPGGA,002508.000,4334.7725,N,14159.9843,E,1,10,1.0,47.1,M,31.5,M,,0000*6F
512,516,568,19.562496,1011.468752
$GPGGA,002510.000,4334.7725,N,14159.9843,E,1,10,1.0,47.1,M,31.5,M,,0000*66
514,517,570,19.750000,1011.046875
$GPGGA,002512.000,4334.7725,N,14159.9843,E,1,10,1.0,47.1,M,31.5,M,,0000*64
514,514,567,19.562496,1012.250000
$GPGGA,002514.000,4334.7725,N,14159.9843,E,1,10,1.0,47.1,M,31.5,M,,0000*62
518,512,563,19.625008,1012.640624
$GPGGA,002516.000,4334.7725,N,14159.9843,E,1,10,1.0,47.1,M,31.5,M,,0000*60
509,523,573,19.625008,1012.250000
$GPGGA,002518.000,4334.7725,N,14159.9843,E,1,10,1.0,47.1,M,31.5,M,,0000*6E
516,518,570,19.625008,1011.046875
$GPGGA,002520.000,4334.7725,N,14159.9843,E,1,10,1.0,47.1,M,31.5,M,,0000*65
516,528,580,19.687504,1012.640624
$GPGGA,002522.000,4334.7725,N,14159.9843,E,1,10,1.0,47.1,M,31.5,M,,0000*67
506,525,575,19.687504,1011.468752
$GPGGA,002524.000,4334.7725,N,14159.9843,E,1,10,1.0,47.1,M,31.5,M,,0000*61
507,524,574,19.687504,1010.671872
$GPGGA,002526.000,4334.7725,N,14159.9843,E,1,10,1.0,47.1,M,31.5,M,,0000*63
507,520,557,19.750000,1011.859376
$GPGGA,002528.000,4334.7725,N,14159.9843,E,1,11,0.8,47.1,M,31.5,M,,0000*65
518,520,577,19.750000,1011.468752
$GPGGA,002530.000,4334.7725,N,14159.9843,E,1,11,0.8,47.1,M,31.5,M,,0000*6C
518,516,568,19.750000,1010.671872
$GPGGA,002532.000,4334.7725,N,14159.9843,E,1,11,0.8,47.1,M,31.5,M,,0000*6E
518,516,566,19.812496,1011.468752
$GPGGA,002534.000,4334.7725,N,14159.9843,E,1,11,0.8,47.1,M,31.5,M,,0000*68
507,510,563,19.812496,1011.859376
$GPGGA,002536.000,4334.7725,N,14159.9843,E,1,11,0.8,47.1,M,31.5,M,,0000*6A
512,520,570,19.812496,1010.281248
$GPGGA,002538.000,4334.7725,N,14159.9843,E,1,11,0.8,47.1,M,31.5,M,,0000*64
512,520,571,19.812496,1011.859376
$GPGGA,002539.000,4334.7725,N,14159.9843,E,1,11,0.8,47.1,M,31.5,M,,0000*65
514,520,572,19.812496,1012.265624
$GPGGA,002541.000,4334.7725,N,14159.9843,E,1,11,0.8,47.1,M,31.5,M,,0000*6A
523,532,584,19.875008,1011.078126
$GPGGA,002543.000,4334.7725,N,14159.9843,E,1,11,0.8,47.1,M,31.5,M,,0000*68
524,526,577,19.937504,1010.671872
$GPGGA,002545.000,4334.7725,N,14159.9843,E,1,11,0.8,47.1,M,31.5,M,,0000*6E
524,527,576,19.937504,1010.671872
$GPGGA,002547.000,4334.7725,N,14159.9843,E,1,11,0.8,47.1,M,31.5,M,,0000*6C
505,519,567,19.937504,1011.078126
$GPGGA,002549.000,4334.7725,N,14159.9843,E,1,11,0.8,47.1,M,31.5,M,,0000*62
510,520,570,19.937504,1010.671872
$GPGGA,002551.000,4334.7725,N,14159.9843,E,1,11,0.8,47.1,M,31.5,M,,0000*6B
520,509,569,19.937504,1010.671872
$GPGGA,002553.000,4334.7725,N,14159.9843,E,1,11,0.8,47.1,M,31.5,M,,0000*69
516,527,573,19.937504,1013.046875
$GPGGA,002555.000,4334.7725,N,14159.9843,E,1,11,0.8,47.1,M,31.5,M,,0000*6F
527,485,547,20.000000,1011.859376
$GPGGA,002557.000,4334.7724,N,14159.9846,E,1,11,0.8,48.3,M,31.5,M,,0000*64
521,543,581,20.062500,1009.484376
$GPGGA,002559.000,4334.7724,N,14159.9846,E,1,11,0.8,48.2,M,31.5,M,,0000*6B
496,527,574,20.312504,1013.046875
$GPGGA,002601.000,4334.7724,N,14159.9846,E,1,11,0.8,48.2,M,31.5,M,,0000*65
505,510,526,20.625008,1012.265624
$GPGGA,002603.000,4334.7724,N,14159.9846,E,1,11,0.8,48.2,M,31.5,M,,0000*67
386,432,485,20.562496,1011.078126
$GPGGA,002605.000,4334.7724,N,14159.9846,E,1,11,0.8,48.2,M,31.5,M,,0000*61
430,495,506,20.500000,1011.078126
$GPGGA,002607.000,4334.7724,N,14159.9846,E,1,11,0.8,48.2,M,31.5,M,,0000*63
410,464,510,20.562496,1012.265624
$GPGGA,002609.000,4334.7724,N,14159.9846,E,1,11,0.8,48.2,M,31.5,M,,0000*6D
425,483,505,20.562496,1012.640624
$GPGGA,002611.000,4334.7724,N,14159.9846,E,1,11,0.8,48.2,M,31.5,M,,0000*64
467,518,564,20.687504,1010.265624
$GPGGA,002613.000,4334.7724,N,14159.9846,E,1,11,0.8,48.2,M,31.5,M,,0000*66
541,578,590,20.750000,1011.843744
$GPGGA,002615.000,4334.7724,N,14159.9846,E,1,11,0.8,48.2,M,31.5,M,,0000*60
468,527,602,20.750000,1011.843744
$GPGGA,002617.000,4334.7724,N,14159.9846,E,1,11,0.8,48.2,M,31.5,M,,0000*62
411,478,570,20.812496,1022.171876
$GPGGA,002619.000,4334.7724,N,14159.9846,E,1,11,0.8,48.2,M,31.5,M,,0000*6C
430,493,577,20.875008,1022.171876
$GPGGA,002621.000,4334.7724,N,14159.9846,E,1,11,0.8,48.2,M,31.5,M,,0000*67
437,491,575,20.937504,1021.359376
$GPGGA,002623.000,4334.7724,N,14159.9846,E,1,11,0.8,48.2,M,31.5,M,,0000*65
421,503,563,20.937504,1021.781248
$GPGGA,002625.000,4334.7724,N,14159.9846,E,1,11,0.8,48.2,M,31.5,M,,0000*63
442,496,530,21.000000,1010.265624
$GPGGA,002627.000,4334.7724,N,14159.9846,E,1,11,0.8,48.2,M,31.5,M,,0000*61
434,493,530,21.125000,1011.843744
$GPGGA,002629.000,4334.7724,N,14159.9846,E,1,11,0.8,48.2,M,31.5,M,,0000*6F
435,493,532,21.125000,1011.453128
$GPGGA,002631.000,4334.7724,N,14159.9846,E,1,11,0.8,48.2,M,31.5,M,,0000*66
427,487,546,21.250000,1011.843744
$GPGGA,002633.000,4334.7724,N,14159.9846,E,1,11,0.8,48.2,M,31.5,M,,0000*64
433,492,540,21.250000,1012.250000
$GPGGA,002635.000,4334.7724,N,14159.9846,E,1,11,0.8,48.2,M,31.5,M,,0000*62
433,491,534,21.312504,1009.468752
$GPGGA,002637.000,4334.7724,N,14159.9846,E,1,11,0.8,48.2,M,31.5,M,,0000*60
436,495,534,21.375000,1012.250000
$GPGGA,002639.000,4334.7724,N,14159.9846,E,1,11,0.8,48.2,M,31.5,M,,0000*6E
436,485,532,21.437504,1011.046875
$GPGGA,002641.000,4334.7724,N,14159.9846,E,1,11,0.8,48.2,M,31.5,M,,0000*61
435,488,553,21.500000,1009.859376
$GPGGA,002643.000,4334.7724,N,14159.9846,E,1,11,0.8,48.2,M,31.5,M,,0000*63
433,494,529,21.562496,1009.859376
$GPGGA,002645.000,4334.7724,N,14159.9846,E,1,11,0.8,48.2,M,31.5,M,,0000*65
442,514,513,21.562496,1010.265624
$GPGGA,002647.000,4334.7724,N,14159.9846,E,1,11,0.8,48.2,M,31.5,M,,0000*67
427,488,512,21.625008,1011.843744
$GPGGA,002649.000,4334.7724,N,14159.9846,E,1,11,0.8,48.2,M,31.5,M,,0000*69
427,491,537,21.687504,1011.843744
$GPGGA,002651.000,4334.7724,N,14159.9846,E,1,11,0.8,48.2,M,31.5,M,,0000*60
431,488,530,21.750000,1010.656256
$GPGGA,002653.000,4334.7724,N,14159.9846,E,1,11,0.8,48.2,M,31.5,M,,0000*62
424,486,539,21.687504,1012.218752
$GPGGA,002655.000,4334.7724,N,14159.9846,E,1,11,0.8,48.2,M,31.5,M,,0000*64
448,499,535,21.812496,1010.656256
$GPGGA,002657.000,4334.7724,N,14159.9846,E,1,11,0.8,48.2,M,31.5,M,,0000*66
425,485,546,21.875008,1012.218752
$GPGGA,002659.000,4334.7724,N,14159.9846,E,1,11,0.8,48.2,M,31.5,M,,0000*68
457,511,555,21.875008,1011.031250
$GPGGA,002701.000,4334.7724,N,14159.9846,E,1,11,0.8,48.2,M,31.5,M,,0000*64
490,550,594,21.937504,1011.031250
$GPGGA,002703.000,4334.7724,N,14159.9846,E,1,11,0.8,48.2,M,31.5,M,,0000*66
521,522,575,22.000000,1011.437504
$GPGGA,002705.000,4334.7724,N,14159.9846,E,1,11,0.8,48.2,M,31.5,M,,0000*60
525,523,572,22.000000,1011.031250
$GPGGA,002707.000,4334.7724,N,14159.9846,E,1,11,0.8,48.2,M,31.5,M,,0000*62
519,513,566,22.000000,1011.031250
$GPGGA,002709.000,4334.7724,N,14159.9846,E,1,11,0.8,48.2,M,31.5,M,,0000*6C
513,515,571,22.125000,1010.234376
$GPGGA,002711.000,4334.7724,N,14159.9846,E,1,11,0.8,48.2,M,31.5,M,,0000*65
507,530,577,22.125000,1009.843744
$GPGGA,002713.000,4334.7724,N,14159.9846,E,1,11,0.8,48.2,M,31.5,M,,0000*67
502,519,570,22.125000,1011.031250
$GPGGA,002715.000,4334.7724,N,14159.9846,E,1,11,0.8,48.2,M,31.5,M,,0000*61
501,518,565,22.187500,1009.843744
$GPGGA,002717.000,4334.7724,N,14159.9846,E,1,11,0.8,48.2,M,31.5,M,,0000*63
504,521,574,22.062500,1011.437504
$GPGGA,002719.000,4334.7724,N,14159.9846,E,1,11,0.8,48.2,M,31.5,M,,0000*6D
504,517,567,22.187500,1011.437504
$GPGGA,002721.000,4334.7724,N,14159.9846,E,1,11,0.8,48.2,M,31.5,M,,0000*66
504,518,571,22.250000,1011.437504
$GPGGA,002723.000,4334.7724,N,14159.9846,E,1,11,0.8,48.2,M,31.5,M,,0000*64
504,518,570,22.187500,1011.031250
$GPGGA,002725.000,4334.7724,N,14159.9846,E,1,11,0.8,48.2,M,31.5,M,,0000*62
504,520,572,22.312504,1010.234376
$GPGGA,002727.000,4334.7724,N,14159.9846,E,1,11,0.8,48.2,M,31.5,M,,0000*60
505,518,569,22.250000,1012.218752
$GPGGA,002729.000,4334.7724,N,14159.9846,E,1,11,0.8,48.2,M,31.5,M,,0000*6E
505,518,570,22.312504,1011.031250
$GPGGA,002731.000,4334.7724,N,14159.9846,E,1,11,0.8,48.2,M,31.5,M,,0000*67
504,518,570,22.312504,1011.031250
$GPGGA,002733.000,4334.7724,N,14159.9846,E,1,12,0.7,48.2,M,31.5,M,,0000*69
504,519,570,22.375000,1011.843744
$GPGGA,002735.000,4334.7724,N,14159.9846,E,1,12,0.7,48.2,M,31.5,M,,0000*6F
504,519,570,22.375000,1010.234376
$GPGGA,002737.000,4334.7724,N,14159.9846,E,1,12,0.7,48.2,M,31.5,M,,0000*6D
504,522,570,22.375000,1012.640624
$GPGGA,002739.000,4334.7724,N,14159.9846,E,1,12,0.7,48.2,M,31.5,M,,0000*63
504,518,570,22.375000,1011.437504
$GPGGA,002741.000,4334.7724,N,14159.9846,E,1,12,0.7,48.2,M,31.5,M,,0000*6C
503,518,570,22.375000,1011.437504
$GPGGA,002743.000,4334.7724,N,14159.9846,E,1,12,0.7,48.2,M,31.5,M,,0000*6E
504,519,570,22.375000,1011.031250
$GPGGA,002745.000,4334.7724,N,14159.9846,E,1,12,0.7,48.2,M,31.5,M,,0000*68
505,520,570,22.437504,1011.031250
$GPGGA,002747.000,4334.7724,N,14159.9846,E,1,12,0.7,48.2,M,31.5,M,,0000*6A
504,519,570,22.375000,1011.437504
$GPGGA,002749.000,4334.7724,N,14159.9846,E,1,12,0.7,48.2,M,31.5,M,,0000*64
504,519,570,22.437504,1011.031250
$GPGGA,002751.000,4334.7724,N,14159.9846,E,1,12,0.7,48.2,M,31.5,M,,0000*6D
504,518,570,22.437504,1011.437504
$GPGGA,002753.000,4334.7724,N,14159.9846,E,1,12,0.7,48.2,M,31.5,M,,0000*6F
461,520,628,22.437504,1011.437504
$GPGGA,002755.000,4334.7724,N,14159.9846,E,1,12,0.7,48.2,M,31.5,M,,0000*69
297,332,454,22.437504,1002.656256
$GPGGA,002757.000,4334.7736,N,14159.9798,E,1,11,0.8,49.6,M,31.5,M,,0000*6D
502,553,593,22.500000,1003.046875
$GPGGA,002759.000,4334.7745,N,14159.9838,E,1,12,0.7,50.8,M,31.5,M,,0000*68
466,529,597,22.562496,1005.453128
$GPGGA,002801.000,4334.7750,N,14159.9872,E,1,12,0.7,53.5,M,31.5,M,,0000*6E
507,481,547,22.687504,1004.656256
$GPGGA,002803.000,4334.7759,N,14159.9895,E,1,12,0.7,57.3,M,31.5,M,,0000*6E
510,560,585,22.812496,1006.640624
$GPGGA,002805.000,4334.7754,N,14159.9910,E,1,12,0.7,61.5,M,31.5,M,,0000*6A
476,561,597,22.750000,1009.453128
$GPGGA,002807.000,4334.7744,N,14159.9912,E,1,12,0.7,63.4,M,31.5,M,,0000*68
483,542,583,22.750000,1010.640624
$GPGGA,002809.000,4334.7745,N,14159.9914,E,1,12,0.7,60.8,M,31.5,M,,0000*6E
482,570,608,22.812496,1010.234376
$GPGGA,002811.000,4334.7761,N,14159.9898,E,1,12,0.7,52.2,M,31.5,M,,0000*6F
443,495,505,22.875008,1010.234376
$GPGGA,002813.000,4334.7771,N,14159.9881,E,1,12,0.7,46.1,M,31.5,M,,0000*62
493,570,552,22.875008,1011.828128
$GPGGA,002815.000,4334.7772,N,14159.9875,E,1,12,0.7,44.1,M,31.5,M,,0000*6E
502,563,590,23.000000,1011.828128
$GPGGA,002817.000,4334.7759,N,14159.9861,E,1,12,0.7,47.4,M,31.5,M,,0000*66
496,559,577,22.937504,1011.437504
$GPGGA,002819.000,4334.7759,N,14159.9861,E,1,12,0.7,47.4,M,31.5,M,,0000*68
541,554,609,23.000000,1010.640624
$GPGGA,002821.000,4334.7759,N,14159.9861,E,1,12,0.7,47.4,M,31.5,M,,0000*63
496,523,575,23.000000,1010.234376
$GPGGA,002823.000,4334.7759,N,14159.9861,E,1,12,0.7,47.4,M,31.5,M,,0000*61
512,565,597,22.937504,1011.406248
$GPGGA,002825.000,4334.7795,N,14159.9835,E,1,12,0.7,47.9,M,31.5,M,,0000*6B
510,528,569,23.062500,1011.031250
$GPGGA,002827.000,4334.7810,N,14159.9833,E,1,12,0.7,47.7,M,31.5,M,,0000*63
555,482,573,23.000000,1012.218752
$GPGGA,002829.000,4334.7823,N,14159.9830,E,1,12,0.7,47.6,M,31.5,M,,0000*6F
541,489,558,23.000000,1010.640624
$GPGGA,002831.000,4334.7834,N,14159.9830,E,1,12,0.7,47.3,M,31.5,M,,0000*65
584,591,586,23.062500,1010.218752
$GPGGA,002833.000,4334.7833,N,14159.9832,E,1,12,0.7,47.6,M,31.5,M,,0000*67
550,530,576,23.062500,1011.406248
$GPGGA,002835.000,4334.7833,N,14159.9832,E,1,12,0.7,47.6,M,31.5,M,,0000*61
521,545,594,23.062500,1011.406248
$GPGGA,002837.000,4334.7816,N,14159.9817,E,1,12,0.7,48.2,M,31.5,M,,0000*68
558,554,592,23.000000,1012.218752
$GPGGA,002839.000,4334.7804,N,14159.9806,E,1,12,0.7,48.4,M,31.5,M,,0000*63
519,508,548,23.000000,1011.406248
$GPGGA,002841.000,4334.7792,N,14159.9795,E,1,12,0.7,48.5,M,31.5,M,,0000*68
559,524,547,23.000000,1009.843744
$GPGGA,002843.000,4334.7780,N,14159.9785,E,1,12,0.7,48.6,M,31.5,M,,0000*6B
571,542,590,22.937504,1012.218752
$GPGGA,002845.000,4334.7767,N,14159.9777,E,1,12,0.7,48.7,M,31.5,M,,0000*68
517,524,581,22.937504,1012.218752
$GPGGA,002847.000,4334.7755,N,14159.9772,E,1,12,0.7,48.8,M,31.5,M,,0000*61
562,560,601,22.875008,1012.609376
$GPGGA,002849.000,4334.7742,N,14159.9771,E,1,12,0.7,48.9,M,31.5,M,,0000*6B
495,542,578,22.937504,1012.218752
$GPGGA,002851.000,4334.7729,N,14159.9773,E,1,11,0.8,49.2,M,31.5,M,,0000*6B
560,557,566,22.937504,1011.828128
$GPGGA,002853.000,4334.7717,N,14159.9778,E,1,12,0.7,49.3,M,31.5,M,,0000*62
550,542,542,22.875008,1010.640624
$GPGGA,002855.000,4334.7704,N,14159.9787,E,1,12,0.7,49.3,M,31.5,M,,0000*66
551,547,586,22.875008,1013.812496
$GPGGA,002857.000,4334.7690,N,14159.9791,E,1,12,0.7,49.6,M,31.5,M,,0000*6A
560,581,613,22.937504,1010.640624
$GPGGA,002859.000,4334.7675,N,14159.9794,E,1,12,0.7,50.0,M,31.5,M,,0000*64
509,539,584,22.875008,1011.828128
$GPGGA,002901.000,4334.7664,N,14159.9803,E,1,12,0.7,50.0,M,31.5,M,,0000*69
583,579,593,22.937504,1011.031250
$GPGGA,002903.000,4334.7657,N,14159.9815,E,1,12,0.7,49.8,M,31.5,M,,0000*6C
538,551,566,22.937504,1011.031250
$GPGGA,002905.000,4334.7653,N,14159.9825,E,1,12,0.7,49.8,M,31.5,M,,0000*6D
559,532,586,22.937504,1011.437504
$GPGGA,002907.000,4334.7653,N,14159.9825,E,1,12,0.7,49.8,M,31.5,M,,0000*6F
558,545,600,23.000000,1011.031250
$GPGGA,002909.000,4334.7648,N,14159.9825,E,1,12,0.7,50.1,M,31.5,M,,0000*6A
524,535,589,23.000000,1011.031250
$GPGGA,002911.000,4334.7641,N,14159.9820,E,1,12,0.7,50.5,M,31.5,M,,0000*6B
561,526,592,23.000000,1011.031250
$GPGGA,002913.000,4334.7632,N,14159.9811,E,1,12,0.7,50.6,M,31.5,M,,0000*6C
579,527,615,23.000000,1009.843744
$GPGGA,002915.000,4334.7623,N,14159.9800,E,1,12,0.7,50.8,M,31.5,M,,0000*64
540,532,590,23.062500,1011.406248
$GPGGA,002917.000,4334.7613,N,14159.9789,E,1,12,0.7,51.0,M,31.5,M,,0000*62
584,555,578,23.000000,1011.406248
$GPGGA,002919.000,4334.7600,N,14159.9778,E,1,12,0.7,51.5,M,31.5,M,,0000*65
568,524,566,23.062500,1011.031250
$GPGGA,002921.000,4334.7590,N,14159.9765,E,1,12,0.7,52.0,M,31.5,M,,0000*6E
572,545,601,23.062500,1012.609376
$GPGGA,002923.000,4334.7582,N,14159.9754,E,1,12,0.7,52.3,M,31.5,M,,0000*6E
558,584,610,23.000000,1011.031250
$GPGGA,002925.000,4334.7576,N,14159.9747,E,1,12,0.7,52.5,M,31.5,M,,0000*67
537,529,579,23.000000,1011.031250
$GPGGA,002927.000,4334.7573,N,14159.9738,E,1,12,0.7,52.6,M,31.5,M,,0000*6B
549,529,579,23.062500,1011.031250
$GPGGA,002929.000,4334.7573,N,14159.9737,E,1,12,0.7,52.6,M,31.5,M,,0000*6A
561,525,582,23.062500,1010.218752
$GPGGA,002931.000,4334.7573,N,14159.9736,E,1,11,0.8,52.7,M,31.5,M,,0000*6F
544,540,591,23.000000,1011.031250
$GPGGA,002933.000,4334.7573,N,14159.9736,E,1,10,0.9,52.7,M,31.5,M,,0000*6D
554,534,584,23.062500,1012.218752
$GPGGA,002935.000,4334.7573,N,14159.9736,E,1,12,0.7,52.7,M,31.5,M,,0000*67
572,539,595,23.000000,1011.031250
$GPGGA,002937.000,4334.7573,N,14159.9736,E,1,10,0.9,52.7,M,31.5,M,,0000*69
501,525,577,23.000000,1012.218752
$GPGGA,002939.000,4334.7573,N,14159.9736,E,1,11,0.8,52.7,M,31.5,M,,0000*67
505,526,576,23.000000,1011.406248
$GPGGA,002941.000,4334.7573,N,14159.9736,E,1,11,0.8,52.7,M,31.5,M,,0000*68
505,526,576,23.000000,1012.609376
$GPGGA,002943.000,4334.7573,N,14159.9736,E,1,10,0.9,52.7,M,31.5,M,,0000*6A
506,527,577,23.000000,1009.843744
$GPGGA,002945.000,4334.7573,N,14159.9736,E,1,11,0.8,52.7,M,31.5,M,,0000*6C
506,526,576,23.000000,1012.218752
$GPGGA,002947.000,4334.7573,N,14159.9736,E,1,11,0.8,52.7,M,31.5,M,,0000*6E
505,530,576,23.000000,1011.031250
$GPGGA,002949.000,4334.7573,N,14159.9736,E,1,10,0.9,52.7,M,31.5,M,,0000*60
506,527,577,23.000000,1012.218752
$GPGGA,002951.000,4334.7573,N,14159.9736,E,1,10,0.9,52.7,M,31.5,M,,0000*69
505,527,577,23.062500,1012.609376
$GPGGA,002953.000,4334.7573,N,14159.9736,E,1,11,0.8,52.7,M,31.5,M,,0000*6B
505,527,577,23.000000,1011.828128
$GPGGA,002955.000,4334.7573,N,14159.9736,E,1,11,0.8,52.7,M,31.5,M,,0000*6D
505,526,575,23.000000,1010.640624
$GPGGA,002957.000,4334.7573,N,14159.9736,E,1,11,0.8,52.7,M,31.5,M,,0000*6F
505,526,576,23.062500,1011.437504
$GPGGA,002959.000,4334.7573,N,14159.9736,E,1,11,0.8,52.7,M,31.5,M,,0000*61
505,528,577,23.062500,1011.828128
$GPGGA,003001.000,4334.7573,N,14159.9736,E,1,11,0.8,52.7,M,31.5,M,,0000*64
505,526,576,22.937504,1010.640624
$GPGGA,003003.000,4334.7573,N,14159.9736,E,1,0,4334.8332,N,14159.9811,E,1,10,1.0,48.4,M,31.5,M,,0000*64
505,525,572,23.875008,1005.000000
$GPGGA,061104.000,4334.8332,N,14159.9811,E,1,10,1.0,48.4,M,31.5,M,,0000*62
505,525,572,23.875008,1005.796880
$GPGGA,061106.000,4334.8332,N,14159.9811,E,1,10,1.0,48.4,M,31.5,M,,0000*60
506,521,572,23.875008,1007.000000
$GPGGA,061108.000,4334.8332,N,14159.9811,E,1,10,1.0,48.4,M,31.5,M,,0000*6E
505,522,572,23.937504,1005.390624
$GPGGA,061110.000,4334.8332,N,14159.9811,E,1,10,1.0,48.4,M,31.5,M,,0000*67
505,522,573,23.875008,1007.000000
$GPGGA,061112.000,4334.8332,N,14159.9811,E,1,10,1.0,48.4,M,31.5,M,,0000*65
505,522,571,23.875008,1005.390624
$GPGGA,061114.000,4334.8332,N,14159.9811,E,1,10,1.0,48.4,M,31.5,M,,0000*63
505,522,573,23.937504,1006.609376
$GPGGA,061116.000,4334.8332,N,14159.9811,E,1,10,1.0,48.4,M,31.5,M,,0000*61
505,522,575,23.875008,1006.609376
$GPGGA,061118.000,4334.8332,N,14159.9811,E,1,10,1.0,48.4,M,31.5,M,,0000*6F
505,521,572,23.937504,1005.390624
$GPGGA,061120.000,4334.8332,N,14159.9811,E,1,10,1.0,48.4,M,31.5,M,,0000*64
505,520,572,23.937504,1006.187500
$GPGGA,061122.000,4334.8332,N,14159.9811,E,1,10,1.0,48.4,M,31.5,M,,0000*66
505,521,578,23.937504,1008.203124
$GPGGA,061124.000,4334.8332,N,14159.9811,E,1,10,1.0,48.4,M,31.5,M,,0000*60
505,521,572,23.937504,1007.000000
$GPGGA,061126.000,4334.8332,N,14159.9811,E,1,10,1.0,48.4,M,31.5,M,,0000*62
505,522,572,23.937504,1005.796880
$GPGGA,061128.000,4334.8332,N,14159.9811,E,1,10,1.0,48.4,M,31.5,M,,0000*6C
506,522,574,23.937504,1007.000000
$GPGGA,061130.000,4334.8332,N,14159.9811,E,1,10,1.0,48.4,M,31.5,M,,0000*65
505,521,572,24.000000,1007.000000
$GPGGA,061132.000,4334.8332,N,14159.9811,E,1,10,1.0,48.4,M,31.5,M,,0000*67
504,521,573,23.937504,1005.390624
$GPGGA,061134.000,4334.8332,N,14159.9811,E,1,10,1.0,48.4,M,31.5,M,,0000*61
505,522,572,24.000000,1007.000000
$GPGGA,061136.000,4334.8332,N,14159.9811,E,1,10,1.0,48.4,M,31.5,M,,0000*63
505,522,572,23.937504,1007.000000
$GPGGA,061138.000,4334.8332,N,14159.9811,E,1,10,1.0,48.4,M,31.5,M,,0000*6D
505,522,573,24.000000,1005.796880
$GPGGA,061140.000,4334.8332,N,14159.9811,E,1,10,1.0,48.4,M,31.5,M,,0000*62
505,522,573,23.937504,1007.000000
$GPGGA,061142.000,4334.8332,N,14159.9811,E,1,10,1.0,48.4,M,31.5,M,,0000*60
505,521,572,23.937504,1005.796880
$GPGGA,061144.000,4334.8332,N,14159.9811,E,1,10,1.0,48.4,M,31.5,M,,0000*66
505,522,573,24.000000,1004.593744
$GPGGA,061146.000,4334.8332,N,14159.9811,E,1,10,1.0,48.4,M,31.5,M,,0000*64
505,522,573,24.000000,1006.187500
$GPGGA,061148.000,4334.8332,N,14159.9811,E,1,10,1.0,48.4,M,31.5,M,,0000*6A
504,522,573,24.000000,1007.390624
$GPGGA,061150.000,4334.8332,N,14159.9811,E,1,10,1.0,48.4,M,31.5,M,,0000*63
505,521,573,24.000000,1005.390624
$GPGGA,061152.000,4334.8332,N,14159.9811,E,1,10,1.0,48.4,M,31.5,M,,0000*61
505,522,573,24.000000,1007.000000
$GPGGA,061154.000,4334.8332,N,14159.9811,E,1,10,1.0,48.4,M,31.5,M,,0000*67
504,521,572,24.000000,1005.796880
$GPGGA,061156.000,4334.8332,N,14159.9811,E,1,10,1.0,48.4,M,31.5,M,,0000*65
506,526,572,24.000000,1004.203124
$GPGGA,061158.000,4334.8332,N,14159.9811,E,1,10,1.0,48.4,M,31.5,M,,0000*6B
503,526,573,24.062500,1005.796880
$GPGGA,061200.000,4334.8332,N,14159.9811,E,1,10,1.0,48.4,M,31.5,M,,0000*65
506,522,573,24.062500,1007.000000
$GPGGA,061202.000,4334.8332,N,14159.9811,E,1,10,1.0,48.4,M,31.5,M,,0000*67
504,522,574,24.062500,1005.000000
$GPGGA,061204.000,4334.8332,N,14159.9811,E,1,10,1.0,48.4,M,31.5,M,,0000*61
504,523,572,24.062500,1004.593744
$GPGGA,061206.000,4334.8332,N,14159.9811,E,1,10,1.0,48.4,M,31.5,M,,0000*63
505,529,572,24.062500,1007.000000
$GPGGA,061208.000,4334.8332,N,14159.9811,E,1,10,1.0,48.4,M,31.5,M,,0000*6D
528,576,618,24.062500,1003.781248
$GPGGA,061210.000,4334.8328,N,14159.9814,E,1,10,1.0,50.0,M,31.5,M,,0000*67
522,480,503,24.062500,996.203124
$GPGGA,061212.000,4334.8340,N,14159.9854,E,1,10,1.0,51.3,M,31.5,M,,0000*6D
504,522,509,24.062500,994.171876
$GPGGA,061214.000,4334.8268,N,14159.9945,E,1,10,1.0,53.0,M,31.5,M,,0000*60
570,598,636,24.062500,997.781248
$GPGGA,061216.000,4334.8249,N,14200.0021,E,1,10,1.0,54.9,M,31.5,M,,0000*62
534,505,543,24.000000,997.000000
$GPGGA,061218.000,4334.8189,N,14200.0075,E,1,10,1.0,57.8,M,31.5,M,,0000*60
547,488,553,24.125000,998.984368
$GPGGA,061220.000,4334.8128,N,14200.0166,E,1,10,1.0,61.3,M,31.5,M,,0000*6D
538,470,517,24.125000,1000.203124
$GPGGA,061222.000,4334.8082,N,14200.0230,E,1,10,1.0,64.2,M,31.5,M,,0000*6A
574,494,551,24.125000,1001.015625
$GPGGA,061224.000,4334.8000,N,14200.0310,E,1,10,1.0,67.5,M,31.5,M,,0000*61
565,490,552,24.125000,1003.390624
$GPGGA,061226.000,4334.7912,N,14200.0337,E,1,10,1.0,67.1,M,31.5,M,,0000*67
555,497,559,24.125000,1003.781248
$GPGGA,061228.000,4334.7822,N,14200.0378,E,1,10,1.0,63.6,M,31.5,M,,0000*63
518,532,564,24.125000,1005.796880
$GPGGA,061230.000,4334.7771,N,14200.0398,E,1,10,1.0,59.3,M,31.5,M,,0000*61
422,449,533,24.125000,1005.796880
$GPGGA,061232.000,4334.7741,N,14200.0384,E,1,10,1.0,53.5,M,31.5,M,,0000*61
499,504,416,24.125000,1007.390624
$GPGGA,061234.000,4334.7748,N,14200.0372,E,1,10,1.0,50.3,M,31.5,M,,0000*62
453,458,420,24.125000,1006.187500
$GPGGA,061236.000,4334.7753,N,14200.0351,E,1,10,1.0,50.4,M,31.5,M,,0000*6C
431,486,445,24.125000,1007.000000
$GPGGA,061238.000,4334.7755,N,14200.0335,E,1,10,1.0,50.4,M,31.5,M,,0000*66
495,476,440,24.125000,1006.187500
$GPGGA,061240.000,4334.7757,N,14200.0325,E,1,10,1.0,49.9,M,31.5,M,,0000*6F
467,502,423,24.125000,1005.796880
$GPGGA,061242.000,4334.7754,N,14200.0318,E,1,10,1.0,49.8,M,31.5,M,,0000*61
527,494,487,24.125000,1006.187500
$GPGGA,061244.000,4334.7755,N,14200.0309,E,1,10,1.0,49.4,M,31.5,M,,0000*6A
564,387,482,24.125000,1005.796880
$GPGGA,061246.000,4334.7758,N,14200.0293,E,1,10,1.0,49.0,M,31.5,M,,0000*63
532,432,493,24.125000,1004.593744
$GPGGA,061248.000,4334.7767,N,14200.0271,E,1,10,1.0,48.7,M,31.5,M,,0000*6B
550,407,479,24.125000,1007.000000
$GPGGA,061250.000,4334.7776,N,14200.0249,E,1,10,1.0,48.5,M,31.5,M,,0000*6B
592,445,483,24.125000,1006.187500
$GPGGA,061252.000,4334.7780,N,14200.0232,E,1,10,1.0,48.4,M,31.5,M,,0000*6D
527,532,483,24.125000,1006.578128
$GPGGA,061254.000,4334.7782,N,14200.0218,E,1,10,1.0,48.2,M,31.5,M,,0000*67
572,523,527,24.187500,1005.796880
$GPGGA,061256.000,4334.7778,N,14200.0209,E,1,10,1.0,48.2,M,31.5,M,,0000*60
549,523,560,24.187500,1006.187500
$GPGGA,061258.000,4334.7777,N,14200.0197,E,1,10,1.0,47.9,M,31.5,M,,0000*61
521,531,581,24.187500,1007.765632
$GPGGA,061300.000,4334.7776,N,14200.0185,E,1,10,1.0,47.5,M,31.5,M,,0000*63
488,529,571,24.312504,1007.390624
$GPGGA,061302.000,4334.7778,N,14200.0170,E,1,10,1.0,47.5,M,31.5,M,,0000*65
566,504,493,24.250000,1005.796880
$GPGGA,061304.000,4334.7780,N,14200.0152,E,1,10,1.0,46.9,M,31.5,M,,0000*69
568,508,519,24.187500,1006.187500
$GPGGA,061306.000,4334.7785,N,14200.0137,E,1,10,1.0,46.5,M,31.5,M,,0000*61
575,531,525,24.250000,1005.796880
$GPGGA,061308.000,4334.7788,N,14200.0127,E,1,10,1.0,46.3,M,31.5,M,,0000*65
553,580,515,24.250000,1005.796880
$GPGGA,061310.000,4334.7790,N,14200.0122,E,1,10,1.0,46.7,M,31.5,M,,0000*64
478,522,568,24.187500,1005.390624
$GPGGA,061312.000,4334.7790,N,14200.0122,E,1,10,1.0,46.6,M,31.5,M,,0000*67
501,560,598,24.250000,1007.000000
$GPGGA,061314.000,4334.7790,N,14200.0122,E,1,10,1.0,46.6,M,31.5,M,,0000*61
510,546,592,24.250000,1007.000000
$GPGGA,061316.000,4334.7790,N,14200.0122,E,1,10,1.0,46.6,M,31.5,M,,0000*63
498,555,592,24.250000,1007.000000
$GPGGA,061318.000,4334.7790,N,14200.0122,E,1,10,1.0,46.6,M,31.5,M,,0000*6D
507,562,601,24.250000,1006.609376
$GPGGA,061320.000,4334.7790,N,14200.0122,E,1,10,1.0,46.6,M,31.5,M,,0000*66
505,565,600,24.312504,1008.203124
$GPGGA,061322.000,4334.7790,N,14200.0122,E,1,10,1.0,46.6,M,31.5,M,,0000*64
513,555,601,24.312504,1007.000000
$GPGGA,061324.000,4334.7790,N,14200.0122,E,1,10,1.0,46.6,M,31.5,M,,0000*62
507,564,604,24.312504,1007.000000
$GPGGA,061326.000,4334.7790,N,14200.0122,E,1,10,1.0,46.6,M,31.5,M,,0000*60
505,560,596,24.312504,1007.390624
$GPGGA,061328.000,4334.7790,N,14200.0122,E,1,10,1.0,46.6,M,31.5,M,,0000*6E
541,517,562,24.312504,1006.187500
$GPGGA,061330.000,4334.7790,N,14200.0122,E,1,10,1.0,46.6,M,31.5,M,,0000*67
551,537,593,24.375000,1005.390624
$GPGGA,061332.000,4334.7790,N,14200.0122,E,1,10,1.0,46.6,M,31.5,M,,0000*65
553,496,597,24.437504,1007.390624
$GPGGA,061334.000,4334.7790,N,14200.0122,E,1,10,1.0,46.6,M,31.5,M,,0000*63
574,564,573,24.375000,1007.765632
$GPGGA,061336.000,4334.7790,N,14200.0122,E,1,10,1.0,46.6,M,31.5,M,,0000*61
550,560,589,24.437504,1007.390624
$GPGGA,061338.000,4334.7790,N,14200.0122,E,1,10,1.0,46.6,M,31.5,M,,0000*6F
541,502,423,24.437504,1005.796880
$GPGGA,061340.000,4334.7790,N,14200.0122,E,1,10,1.0,46.6,M,31.5,M,,0000*60
543,547,598,24.375000,1007.390624
$GPGGA,061342.000,4334.7790,N,14200.0122,E,1,10,1.0,46.6,M,31.5,M,,0000*62
518,567,607,24.437504,1007.390624
$GPGGA,061344.000,4334.7797,N,14200.0113,E,1,10,1.0,47.9,M,31.5,M,,0000*6F
506,542,604,24.500000,1006.578128
$GPGGA,061346.000,4334.7793,N,14200.0103,E,1,10,1.0,48.0,M,31.5,M,,0000*6E
519,565,589,24.500000,1006.187500
$GPGGA,061348.000,4334.7788,N,14200.0090,E,1,10,1.0,48.0,M,31.5,M,,0000*61
515,550,611,24.500000,1015.375000
$GPGGA,061350.000,4334.7784,N,14200.0077,E,1,10,1.0,48.1,M,31.5,M,,0000*6C
512,568,610,24.500000,1005.375000
$GPGGA,061352.000,4334.7777,N,14200.0062,E,1,10,1.0,48.2,M,31.5,M,,0000*65
553,601,574,24.500000,1005.765632
$GPGGA,061354.000,4334.7770,N,14200.0048,E,1,10,1.0,48.3,M,31.5,M,,0000*6D
533,543,604,24.562496,1004.562496
$GPGGA,061356.000,4334.7762,N,14200.0033,E,1,10,1.0,48.3,M,31.5,M,,0000*60
482,555,586,24.625008,1015.328128
$GPGGA,061357.000,4334.7759,N,14200.0027,E,1,10,1.0,48.2,M,31.5,M,,0000*6D
496,534,610,24.625008,1006.140624
$GPGGA,061359.000,4334.7750,N,14200.0012,E,1,10,1.0,48.4,M,31.5,M,,0000*6A
488,533,573,24.625008,1006.140624
$GPGGA,061401.000,4334.7742,N,14159.9996,E,1,10,1.0,48.2,M,31.5,M,,0000*66
491,548,611,24.625008,1006.140624
$GPGGA,061403.000,4334.7734,N,14159.9982,E,1,10,1.0,48.0,M,31.5,M,,0000*62
496,516,553,24.687504,1006.140624
$GPGGA,061405.000,4334.7727,N,14159.9970,E,1,10,1.0,48.1,M,31.5,M,,0000*6A
494,517,566,24.687504,1013.593744
$GPGGA,061407.000,4334.7721,N,14159.9957,E,1,10,1.0,48.1,M,31.5,M,,0000*6B
466,541,589,24.750000,1006.937504
$GPGGA,061409.000,4334.7714,N,14159.9940,E,1,10,1.0,48.3,M,31.5,M,,0000*67
489,567,585,24.750000,1006.546880
$GPGGA,061411.000,4334.7704,N,14159.9923,E,1,10,1.0,48.9,M,31.5,M,,0000*60
495,502,549,24.812496,1012.390624
$GPGGA,061413.000,4334.7695,N,14159.9908,E,1,10,1.0,49.2,M,31.5,M,,0000*68
454,494,573,24.937504,1012.750000
$GPGGA,061415.000,4334.7686,N,14159.9894,E,1,10,1.0,49.4,M,31.5,M,,0000*6E
495,530,561,24.937504,1004.921872
$GPGGA,061417.000,4334.7677,N,14159.9878,E,1,10,1.0,49.5,M,31.5,M,,0000*61
507,519,576,24.937504,1006.125000
$GPGGA,061419.000,4334.7666,N,14159.9864,E,1,10,1.0,49.5,M,31.5,M,,0000*62
471,517,572,25.000000,1006.500000
$GPGGA,061421.000,4334.7657,N,14159.9852,E,1,10,1.0,49.5,M,31.5,M,,0000*6E
481,537,592,25.000000,1006.125000
$GPGGA,061423.000,4334.7648,N,14159.9839,E,1,10,1.0,49.7,M,31.5,M,,0000*6D
492,554,594,25.000000,1007.718752
$GPGGA,061425.000,4334.7638,N,14159.9824,E,1,09,1.1,49.8,M,31.5,M,,0000*66
483,528,571,25.062500,1005.312504
$GPGGA,061427.000,4334.7627,N,14159.9813,E,1,10,1.0,50.1,M,31.5,M,,0000*66
461,470,585,25.125000,1006.500000
$GPGGA,061429.000,4334.7612,N,14159.9802,E,1,10,1.0,50.9,M,31.5,M,,0000*66
489,525,572,25.125000,1006.093750
$GPGGA,061431.000,4334.7599,N,14159.9790,E,1,10,1.0,51.3,M,31.5,M,,0000*60
501,521,576,25.187500,1006.906256
$GPGGA,061433.000,4334.7588,N,14159.9779,E,1,10,1.0,51.6,M,31.5,M,,0000*60
469,493,598,25.187500,1005.703120
$GPGGA,061435.000,4334.7581,N,14159.9768,E,1,10,1.0,51.7,M,31.5,M,,0000*6E
493,509,566,25.375000,1013.531248
$GPGGA,061437.000,4334.7579,N,14159.9755,E,1,10,1.0,51.3,M,31.5,M,,0000*61
475,523,577,25.437504,1012.718752
$GPGGA,061439.000,4334.7573,N,14159.9746,E,1,10,1.0,50.9,M,31.5,M,,0000*6C
511,526,577,25.375000,1006.859376
$GPGGA,061441.000,4334.7568,N,14159.9745,E,1,10,1.0,50.8,M,31.5,M,,0000*6B
464,527,571,25.437504,1006.484376
$GPGGA,061443.000,4334.7569,N,14159.9745,E,1,10,1.0,50.9,M,31.5,M,,0000*69
472,514,559,25.437504,1006.859376
$GPGGA,061445.000,4334.7569,N,14159.9745,E,1,08,1.1,50.9,M,31.5,M,,0000*67
466,528,595,25.437504,1007.671872
$GPGGA,061447.000,4334.7569,N,14159.9745,E,1,09,1.1,50.9,M,31.5,M,,0000*64
475,533,571,25.437504,1006.093750
$GPGGA,061449.000,4334.7569,N,14159.9745,E,1,09,1.1,50.9,M,31.5,M,,0000*6A
488,517,563,25.437504,1006.484376
$GPGGA,061451.000,4334.7569,N,14159.9745,E,1,08,1.1,50.9,M,31.5,M,,0000*62
496,492,551,25.500000,1007.296872
$GPGGA,061453.000,4334.7569,N,14159.9745,E,1,09,1.1,50.9,M,31.5,M,,0000*61
488,516,564,25.500000,1007.296872
128
$GPGGA,051419.000,4334.7583,N,14159.9749,E,1,11,0.9,44.1,M,31.5,M,,0000*69
511,524,576,28.062500,1004.328128
$GPGGA,051421.000,4334.7583,N,14159.9749,E,1,11,0.9,44.1,M,31.5,M,,0000*62
510,525,576,28.000000,1004.328128
$GPGGA,051423.000,4334.7583,N,14159.9749,E,1,11,0.9,44.1,M,31.5,M,,0000*60
510,524,577,28.062500,1005.531248
$GPGGA,051425.000,4334.7583,N,14159.9749,E,1,11,0.9,44.1,M,31.5,M,,0000*66
510,524,576,28.062500,1004.328128
$GPGGA,051427.000,4334.7583,N,14159.9749,E,1,11,0.9,44.1,M,31.5,M,,0000*64
510,525,577,28.062500,1004.718752
$GPGGA,051429.000,4334.7583,N,14159.9749,E,1,11,0.9,44.1,M,31.5,M,,0000*6A
511,524,576,28.125000,1005.140624
$GPGGA,051431.000,4334.7583,N,14159.9749,E,1,11,0.9,44.1,M,31.5,M,,0000*63
511,525,576,28.125000,1005.531248
$GPGGA,051433.000,4334.7583,N,14159.9749,E,1,11,0.9,44.1,M,31.5,M,,0000*61
511,524,577,28.125000,1004.328128
$GPGGA,051435.000,4334.7583,N,14159.9749,E,1,11,0.9,44.1,M,31.5,M,,0000*67
511,525,576,28.187500,1005.531248
$GPGGA,051437.000,4334.7583,N,14159.9749,E,1,11,0.9,44.1,M,31.5,M,,0000*65
510,525,576,28.187500,1005.921872
$GPGGA,051439.000,4334.7583,N,14159.9749,E,1,11,0.9,44.1,M,31.5,M,,0000*6B
511,524,576,28.187500,1005.531248
$GPGGA,051441.000,4334.7583,N,14159.9749,E,1,11,0.9,44.1,M,31.5,M,,0000*64
510,525,576,28.187500,1005.531248
$GPGGA,051443.000,4334.7583,N,14159.9749,E,1,11,0.9,44.1,M,31.5,M,,0000*66
511,524,576,28.250000,1004.328128
$GPGGA,051445.000,4334.7583,N,14159.9749,E,1,11,0.9,44.1,M,31.5,M,,0000*60
511,523,576,28.250000,1004.328128
$GPGGA,051447.000,4334.7583,N,14159.9749,E,1,11,0.9,44.1,M,31.5,M,,0000*62
511,524,577,28.250000,1005.531248
$GPGGA,051449.000,4334.7583,N,14159.9749,E,1,11,0.9,44.1,M,31.5,M,,0000*6C
512,523,577,28.250000,1004.718752
$GPGGA,051451.000,4334.7583,N,14159.9749,E,1,11,0.9,44.1,M,31.5,M,,0000*65
510,527,577,28.250000,1005.093750
$GPGGA,051453.000,4334.7583,N,14159.9749,E,1,11,0.9,44.1,M,31.5,M,,0000*67
511,524,577,28.250000,1004.328128
$GPGGA,051455.000,4334.7583,N,14159.9749,E,1,11,0.9,44.1,M,31.5,M,,0000*61
511,524,576,28.312504,1005.921872
$GPGGA,051457.000,4334.7583,N,14159.9749,E,1,11,0.9,44.1,M,31.5,M,,0000*63
510,525,576,28.312504,1005.921872
$GPGGA,051459.000,4334.7583,N,14159.9749,E,1,11,0.9,44.1,M,31.5,M,,0000*6D
510,525,576,28.312504,1004.718752
$GPGGA,051501.000,4334.7583,N,14159.9749,E,1,11,0.9,44.1,M,31.5,M,,0000*61
511,525,576,28.312504,1005.093750
$GPGGA,051503.000,4334.7583,N,14159.9749,E,1,11,0.9,44.1,M,31.5,M,,0000*63
511,525,576,28.375000,1005.484376
$GPGGA,051505.000,4334.7583,N,14159.9749,E,1,11,0.9,44.1,M,31.5,M,,0000*65
510,525,576,28.375000,1004.718752
$GPGGA,051507.000,4334.7583,N,14159.9749,E,1,11,0.9,44.1,M,31.5,M,,0000*67
510,525,576,28.375000,1004.328128
$GPGGA,051509.000,4334.7583,N,14159.9749,E,1,11,0.9,44.1,M,31.5,M,,0000*69
510,525,576,28.437504,1005.093750
$GPGGA,051511.000,4334.7583,N,14159.9749,E,1,11,0.9,44.1,M,31.5,M,,0000*60
510,525,577,28.437504,1006.703120
$GPGGA,051513.000,4334.7583,N,14159.9749,E,1,11,0.9,44.1,M,31.5,M,,0000*62
511,524,577,28.437504,1005.093750
$GPGGA,051515.000,4334.7583,N,14159.9749,E,1,11,0.9,44.1,M,31.5,M,,0000*64
511,524,576,28.437504,1006.312504
$GPGGA,051517.000,4334.7583,N,14159.9749,E,1,11,0.9,44.1,M,31.5,M,,0000*66
509,526,577,28.437504,1005.093750
$GPGGA,051519.000,4334.7583,N,14159.9749,E,1,11,0.9,44.1,M,31.5,M,,0000*68
511,524,577,28.500000,1005.093750
$GPGGA,051521.000,4334.7583,N,14159.9749,E,1,11,0.9,44.1,M,31.5,M,,0000*63
511,524,576,28.437504,1006.312504
$GPGGA,051523.000,4334.7583,N,14159.9749,E,1,11,0.9,44.1,M,31.5,M,,0000*61
510,524,576,28.500000,1006.703120
$GPGGA,051525.000,4334.7583,N,14159.9749,E,1,11,0.9,44.1,M,31.5,M,,0000*67
511,524,576,28.500000,1005.093750
$GPGGA,051527.000,4334.7583,N,14159.9749,E,1,11,0.9,44.1,M,31.5,M,,0000*65
511,525,576,28.562496,1006.312504
$GPGGA,051529.000,4334.7583,N,14159.9749,E,1,11,0.9,44.1,M,31.5,M,,0000*6B
510,525,578,28.562496,1005.484376
$GPGGA,051531.000,4334.7583,N,14159.9749,E,1,11,0.9,44.1,M,31.5,M,,0000*62
511,524,579,28.562496,1006.703120
$GPGGA,051533.000,4334.7583,N,14159.9749,E,1,11,0.9,44.1,M,31.5,M,,0000*60
508,526,578,28.562496,1004.718752
$GPGGA,051535.000,4334.7583,N,14159.9749,E,1,11,0.9,44.1,M,31.5,M,,0000*66
510,525,577,28.562496,1005.093750
$GPGGA,051537.000,4334.7583,N,14159.9749,E,1,11,0.9,44.1,M,31.5,M,,0000*64
511,524,576,28.625008,1005.484376
$GPGGA,051539.000,4334.7583,N,14159.9749,E,1,11,0.9,44.1,M,31.5,M,,0000*6A
511,525,576,28.625008,1004.265624
$GPGGA,051541.000,4334.7583,N,14159.9749,E,1,11,0.9,44.1,M,31.5,M,,0000*65
511,525,577,28.625008,1005.875008
$GPGGA,051543.000,4334.7583,N,14159.9749,E,1,11,0.9,44.1,M,31.5,M,,0000*67
511,525,576,28.625008,1004.265624
$GPGGA,051545.000,4334.7583,N,14159.9749,E,1,11,0.9,44.1,M,31.5,M,,0000*61
517,524,573,28.687504,1005.484376
$GPGGA,051547.000,4334.7583,N,14159.9749,E,1,11,0.9,44.1,M,31.5,M,,0000*63
511,525,576,28.687504,1004.265624
$GPGGA,051549.000,4334.7583,N,14159.9749,E,1,11,0.9,44.1,M,31.5,M,,0000*6D
511,524,576,28.687504,1005.484376
$GPGGA,051551.000,4334.7583,N,14159.9749,E,1,11,0.9,44.1,M,31.5,M,,0000*64
511,529,577,28.750000,1004.265624
$GPGGA,051553.000,4334.7583,N,14159.9749,E,1,11,0.9,44.1,M,31.5,M,,0000*66
511,524,576,28.687504,1004.265624
$GPGGA,051555.000,4334.7583,N,14159.9749,E,1,11,0.9,44.1,M,31.5,M,,0000*60
510,525,576,28.687504,1006.703120
$GPGGA,051557.000,4334.7583,N,14159.9749,E,1,11,0.9,44.1,M,31.5,M,,0000*62
512,529,577,28.750000,1005.484376
$GPGGA,051559.000,4334.7583,N,14159.9749,E,1,11,0.9,44.1,M,31.5,M,,0000*6C
511,524,577,28.750000,1005.875008
$GPGGA,051601.000,4334.7583,N,14159.9749,E,1,11,0.9,44.1,M,31.5,M,,0000*62
511,525,577,28.750000,1004.656256
$GPGGA,051603.000,4334.7583,N,14159.9749,E,1,11,0.9,44.1,M,31.5,M,,0000*60
511,525,577,28.812496,1006.703120
$GPGGA,051605.000,4334.7583,N,14159.9749,E,1,11,0.9,44.1,M,31.5,M,,0000*66
511,525,576,28.875008,1005.875008
$GPGGA,051607.000,4334.7583,N,14159.9749,E,1,11,0.9,44.1,M,31.5,M,,0000*64
510,525,576,28.812496,1004.656256
$GPGGA,051609.000,4334.7583,N,14159.9749,E,1,11,0.9,44.1,M,31.5,M,,0000*6A
510,524,577,28.875008,1004.656256
$GPGGA,051611.000,4334.7583,N,14159.9749,E,1,11,0.9,44.1,M,31.5,M,,0000*63
510,525,577,28.875008,1004.656256
$GPGGA,051613.000,4334.7583,N,14159.9749,E,1,11,0.9,44.1,M,31.5,M,,0000*61
510,525,576,28.875008,1005.875008
$GPGGA,051615.000,4334.7583,N,14159.9749,E,1,11,0.9,44.1,M,31.5,M,,0000*67
511,525,576,28.937504,1004.656256
$GPGGA,051617.000,4334.7583,N,14159.9749,E,1,11,0.9,44.1,M,31.5,M,,0000*65
510,525,577,28.937504,1004.656256
$GPGGA,051619.000,4334.7583,N,14159.9749,E,1,11,0.9,44.1,M,31.5,M,,0000*6B
511,525,576,28.937504,1004.656256
$GPGGA,051621.000,4334.7583,N,14159.9749,E,1,11,0.9,44.1,M,31.5,M,,0000*60
510,525,577,28.937504,1006.250000
$GPGGA,051623.000,4334.7583,N,14159.9749,E,1,11,0.9,44.1,M,31.5,M,,0000*62
512,525,576,28.937504,1005.437504
$GPGGA,051625.000,4334.7583,N,14159.9749,E,1,11,0.9,44.1,M,31.5,M,,0000*64
510,522,576,29.000000,1005.031250
$GPGGA,051627.000,4334.7583,N,14159.9749,E,1,11,0.9,44.1,M,31.5,M,,0000*66
510,525,577,29.000000,1004.656256
$GPGGA,051629.000,4334.7583,N,14159.9749,E,1,11,0.9,44.1,M,31.5,M,,0000*68
510,525,576,29.062500,1005.031250
$GPGGA,051631.000,4334.7583,N,14159.9749,E,1,11,0.9,44.1,M,31.5,M,,0000*61
511,524,575,29.000000,1005.437504
$GPGGA,051633.000,4334.7583,N,14159.9749,E,1,11,0.9,44.1,M,31.5,M,,0000*63
511,525,576,29.062500,1005.437504
$GPGGA,051635.000,4334.7583,N,14159.9749,E,1,11,0.9,44.1,M,31.5,M,,0000*65
510,524,576,29.062500,1005.437504
$GPGGA,051637.000,4334.7583,N,14159.9749,E,1,11,0.9,44.1,M,31.5,M,,0000*67
511,524,576,29.125000,1005.031250
$GPGGA,051639.000,4334.7583,N,14159.9749,E,1,11,0.9,44.1,M,31.5,M,,0000*69
511,525,577,29.062500,1005.031250
$GPGGA,051641.000,4334.7583,N,14159.9749,E,1,11,0.9,44.1,M,31.5,M,,0000*66
510,524,576,29.125000,1005.031250
$GPGGA,051643.000,4334.7583,N,14159.9749,E,1,10,0.9,44.1,M,31.5,M,,0000*65
511,525,576,29.125000,1006.250000
$GPGGA,051645.000,4334.7583,N,14159.9749,E,1,11,0.9,44.1,M,31.5,M,,0000*62
510,525,576,29.125000,1005.812496
$GPGGA,051647.000,4334.7583,N,14159.9749,E,1,11,0.9,44.1,M,31.5,M,,0000*60
511,529,576,29.125000,1005.812496
$GPGGA,051649.000,4334.7583,N,14159.9749,E,1,11,0.9,44.1,M,31.5,M,,0000*6E
509,524,576,29.125000,1006.640624
$GPGGA,051651.000,4334.7583,N,14159.9749,E,1,11,0.9,44.1,M,31.5,M,,0000*67
511,525,576,29.187500,1005.437504
$GPGGA,051653.000,4334.7583,N,14159.9749,E,1,11,0.9,44.1,M,31.5,M,,0000*65
511,524,576,29.187500,1006.640624
$GPGGA,051655.000,4334.7583,N,14159.9749,E,1,11,0.9,44.1,M,31.5,M,,0000*63
512,526,575,29.187500,1005.437504
$GPGGA,051657.000,4334.7583,N,14159.9749,E,1,11,0.9,44.1,M,31.5,M,,0000*61
511,525,577,29.187500,1005.437504
$GPGGA,051659.000,4334.7583,N,14159.9749,E,1,11,0.9,44.1,M,31.5,M,,0000*6F
510,525,574,29.250000,1006.640624
$GPGGA,051701.000,4334.7583,N,14159.9749,E,1,11,0.9,44.1,M,31.5,M,,0000*63
511,524,576,29.187500,1005.437504
$GPGGA,051703.000,4334.7583,N,14159.9749,E,1,11,0.9,44.1,M,31.5,M,,0000*61
511,524,577,29.250000,1004.593744
$GPGGA,051705.000,4334.7583,N,14159.9749,E,1,11,0.9,44.1,M,31.5,M,,0000*67
511,524,576,29.250000,1005.437504
$GPGGA,051707.000,4334.7583,N,14159.9749,E,1,11,0.9,44.1,M,31.5,M,,0000*65
511,525,577,29.250000,1005.812496
$GPGGA,051709.000,4334.7583,N,14159.9749,E,1,11,0.9,44.1,M,31.5,M,,0000*6B
511,524,577,29.250000,1005.812496
$GPGGA,051711.000,4334.7583,N,14159.9749,E,1,11,0.9,44.1,M,31.5,M,,0000*62
511,524,576,29.250000,1005.812496
$GPGGA,051713.000,4334.7583,N,14159.9749,E,1,11,0.9,44.1,M,31.5,M,,0000*60
511,524,576,29.250000,1005.812496
$GPGGA,051715.000,4334.7583,N,14159.9749,E,1,11,0.9,44.1,M,31.5,M,,0000*66
511,525,577,29.312504,1005.437504
$GPGGA,051717.000,4334.7583,N,14159.9749,E,1,11,0.9,44.1,M,31.5,M,,0000*64
512,524,576,29.312504,1007.046875
$GPGGA,051719.000,4334.7583,N,14159.9749,E,1,11,0.9,44.1,M,31.5,M,,0000*6A
511,525,576,29.312504,1005.812496
$GPGGA,051721.000,4334.7583,N,14159.9749,E,1,11,0.9,44.1,M,31.5,M,,0000*61
510,524,576,29.312504,1005.812496
$GPGGA,051723.000,4334.7583,N,14159.9749,E,1,11,0.9,44.1,M,31.5,M,,0000*63
511,524,576,29.312504,1004.593744
$GPGGA,051725.000,4334.7583,N,14159.9749,E,1,11,0.9,44.1,M,31.5,M,,0000*65
511,530,577,29.375000,1005.812496
$GPGGA,051727.000,4334.7583,N,14159.9749,E,1,11,0.9,44.1,M,31.5,M,,0000*67
511,524,577,29.375000,1005.812496
$GPGGA,051729.000,4334.7583,N,14159.9749,E,1,10,1.0,44.1,M,31.5,M,,0000*60
515,520,577,29.375000,1004.593744
$GPGGA,051731.000,4334.7583,N,14159.9749,E,1,11,0.9,44.1,M,31.5,M,,0000*60
510,526,576,29.375000,1004.968752
$GPGGA,051733.000,4334.7583,N,14159.9749,E,1,11,0.9,44.1,M,31.5,M,,0000*62
511,524,576,29.375000,1004.593744
$GPGGA,051735.000,4334.7583,N,14159.9749,E,1,11,0.9,44.1,M,31.5,M,,0000*64
510,525,577,29.375000,1006.203124
$GPGGA,051737.000,4334.7583,N,14159.9749,E,1,11,0.9,44.1,M,31.5,M,,0000*66
511,524,576,29.437504,1006.203124
$GPGGA,051739.000,4334.7583,N,14159.9749,E,1,11,0.9,44.1,M,31.5,M,,0000*68
510,526,576,29.437504,1005.437504
$GPGGA,051741.000,4334.7583,N,14159.9749,E,1,11,0.9,44.1,M,31.5,M,,0000*67
511,525,576,29.437504,1004.593744
$GPGGA,051743.000,4334.7583,N,14159.9749,E,1,11,0.9,44.1,M,31.5,M,,0000*65
511,524,576,29.437504,1006.203124
$GPGGA,051745.000,4334.7583,N,14159.9749,E,1,11,0.9,44.1,M,31.5,M,,0000*63
511,525,577,29.437504,1005.812496
$GPGGA,051747.000,4334.7583,N,14159.9749,E,1,11,0.9,44.1,M,31.5,M,,0000*61
510,526,577,29.500000,1004.968752
$GPGGA,051749.000,4334.7583,N,14159.9749,E,1,11,0.9,44.1,M,31.5,M,,0000*6F
511,525,577,29.500000,1006.203124
$GPGGA,051751.000,4334.7583,N,14159.9749,E,1,11,0.9,44.1,M,31.5,M,,0000*66
511,525,577,29.500000,1005.812496
$GPGGA,051753.000,4334.7583,N,14159.9749,E,1,11,0.9,44.1,M,31.5,M,,0000*64
511,524,577,29.500000,1005.812496
$GPGGA,051755.000,4334.7583,N,14159.9749,E,1,11,0.9,44.1,M,31.5,M,,0000*62
510,525,577,29.500000,1005.812496
$GPGGA,051757.000,4334.7583,N,14159.9749,E,1,11,0.9,44.1,M,31.5,M,,0000*60
510,525,576,29.500000,1004.968752
$GPGGA,051759.000,4334.7583,N,14159.9749,E,1,11,0.9,44.1,M,31.5,M,,0000*6E
511,525,577,29.500000,1006.203124
$GPGGA,051801.000,4334.7583,N,14159.9749,E,1,11,0.9,44.1,M,31.5,M,,0000*6C
511,525,576,29.500000,1006.203124
$GPGGA,051803.000,4334.7583,N,14159.9749,E,1,11,0.9,44.1,M,31.5,M,,0000*6E
511,525,576,29.562496,1006.203124
$GPGGA,051805.000,4334.7583,N,14159.9749,E,1,11,0.9,44.1,M,31.5,M,,0000*68
510,525,576,29.562496,1005.812496
$GPGGA,051807.000,4334.7583,N,14159.9749,E,1,11,0.9,44.1,M,31.5,M,,0000*6A
509,524,577,29.562496,1006.203124
$GPGGA,051809.000,4334.7583,N,14159.9749,E,1,11,0.9,44.1,M,31.5,M,,0000*64
510,526,576,29.562496,1005.812496
$GPGGA,051811.000,4334.7583,N,14159.9749,E,1,11,0.9,44.1,M,31.5,M,,0000*6D
510,525,577,29.562496,1004.593744
$GPGGA,051813.000,4334.7583,N,14159.9749,E,1,11,0.9,44.1,M,31.5,M,,0000*6F
511,526,577,29.562496,1006.203124
$GPGGA,051815.000,4334.7583,N,14159.9749,E,1,11,0.9,44.1,M,31.5,M,,0000*69
511,524,577,29.562496,1004.593744
$GPGGA,051817.000,4334.7583,N,14159.9749,E,1,11,0.9,44.1,M,31.5,M,,0000*6B
510,525,576,29.562496,1005.812496
$GPGGA,051819.000,4334.7583,N,14159.9749,E,1,11,0.9,44.1,M,31.5,M,,0000*65
511,525,576,29.562496,1004.593744
$GPGGA,051821.000,4334.7583,N,14159.9749,E,1,11,0.9,44.1,M,31.5,M,,0000*6E
511,524,577,29.625008,1007.421872
$GPGGA,051823.000,4334.7583,N,14159.9749,E,1,11,0.9,44.1,M,31.5,M,,0000*6C
511,525,576,29.625008,1006.203124
$GPGGA,051825.000,4334.7583,N,14159.9749,E,1,11,0.9,44.1,M,31.5,M,,0000*6A
510,524,576,29.562496,1006.203124
$GPGGA,051827.000,4334.7583,N,14159.9749,E,1,11,0.9,44.1,M,31.5,M,,0000*68
512,525,576,29.562496,1005.812496
$GPGGA,051829.000,4334.7583,N,14159.9749,E,1,11,0.9,44.1,M,31.5,M,,0000*66
510,525,577,29.562496,1005.812496
$GPGGA,051831.000,4334.7583,N,14159.9749,E,1,11,0.9,44.1,M,31.5,M,,0000*6F
511,525,576,29.562496,1005.812496
$GPGGA,051833.000,4334.7583,N,14159.9749,E,1,11,0.9,44.1,M,31.5,M,,0000*6D
511,524,576,29.562496,1005.812496
$GPGGA,051835.000,4334.7583,N,14159.9749,E,1,11,0.9,44.1,M,31.5,M,,0000*6B
511,524,577,29.562496,1005.812496
$GPGGA,051837.000,4334.7583,N,14159.9749,E,1,11,0.9,44.1,M,31.5,M,,0000*69
511,525,576,29.562496,1004.593744
$GPGGA,051839.000,4334.7583,N,14159.9749,E,1,11,0.9,44.1,M,31.5,M,,0000*67
511,525,576,29.562496,1005.812496
$GPGGA,051841.000,4334.7583,N,14159.9749,E,1,11,0.9,44.1,M,31.5,M,,0000*68
510,522,576,29.562496,1006.203124
$GPGGA,051843.000,4334.7583,N,14159.9749,E,1,11,0.9,44.1,M,31.5,M,,0000*6A
510,525,576,29.625008,1005.812496
$GPGGA,051845.000,4334.7583,N,14159.9749,E,1,11,0.9,44.1,M,31.5,M,,0000*6C
510,525,577,29.625008,1005.812496
$GPGGA,051847.000,4334.7583,N,14159.9749,E,1,11,0.9,44.1,M,31.5,M,,0000*6E
510,526,577,29.625008,1006.203124
$GPGGA,051849.000,4334.7583,N,14159.9749,E,1,11,0.9,44.1,M,31.5,M,,0000*60
510,524,577,29.625008,1005.812496
$GPGGA,051851.000,4334.7583,N,14159.9749,E,1,11,0.9,44.1,M,31.5,M,,0000*69
511,525,577,29.562496,1006.203124
$GPGGA,051853.000,4334.7583,N,14159.9749,E,1,11,0.9,44.1,M,31.5,M,,0000*6B
511,525,577,29.625008,1005.812496
$GPGGA,051855.000,4334.7583,N,14159.9749,E,1,11,0.9,44.1,M,31.5,M,,0000*6D
511,525,576,29.625008,1005.812496
$GPGGA,051857.000,4334.7583,N,14159.9749,E,1,11,0.9,44.1,M,31.5,M,,0000*6F
510,525,577,29.562496,1006.203124
$GPGGA,051859.000,4334.7583,N,14159.9749,E,1,11,0.9,44.1,M,31.5,M,,0000*61
511,525,577,29.625008,1006.203124
$GPGGA,051901.000,4334.7583,N,14159.9749,E,1,11,0.9,44.1,M,31.5,M,,0000*6D
510,525,576,29.625008,1005.812496
$GPGGA,051903.000,4334.7583,N,14159.9749,E,1,11,0.9,44.1,M,31.5,M,,0000*6F
510,525,577,29.625008,1006.203124
$GPGGA,051905.000,4334.7583,N,14159.9749,E,1,11,0.9,44.1,M,31.5,M,,0000*69
511,525,576,29.625008,1005.812496
$GPGGA,051907.000,4334.7583,N,14159.9749,E,1,11,0.9,44.1,M,31.5,M,,0000*6B
510,530,576,29.625008,1005.812496
$GPGGA,051909.000,4334.7583,N,14159.9749,E,1,11,0.9,44.1,M,31.5,M,,0000*65
511,524,576,29.562496,1005.812496
$GPGGA,051911.000,4334.7583,N,14159.9749,E,1,11,0.9,44.1,M,31.5,M,,0000*6C
511,525,577,29.625008,1006.203124
$GPGGA,051913.000,4334.7583,N,14159.9749,E,1,11,0.9,44.1,M,31.5,M,,0000*6E
511,525,577,29.625008,1005.812496
$GPGGA,051915.000,4334.7583,N,14159.9749,E,1,11,0.9,44.1,M,31.5,M,,0000*68
511,525,577,29.625008,1005.812496
$GPGGA,051917.000,4334.7583,N,14159.9749,E,1,11,0.9,44.1,M,31.5,M,,0000*6A
511,525,576,29.625008,1005.812496
$GPGGA,051919.000,4334.7583,N,14159.9749,E,1,11,0.9,44.1,M,31.5,M,,0000*64
511,525,576,29.625008,1005.812496
$GPGGA,051921.000,4334.7583,N,14159.9749,E,1,11,0.9,44.1,M,31.5,M,,0000*6F
512,525,576,29.625008,1005.812496
$GPGGA,051923.000,4334.7583,N,14159.9749,E,1,11,0.9,44.1,M,31.5,M,,0000*6D
511,525,576,29.625008,1005.812496
$GPGGA,051925.000,4334.7583,N,14159.9749,E,1,11,0.9,44.1,M,31.5,M,,0000*6B
511,525,577,29.625008,1005.812496
$GPGGA,051927.000,4334.7583,N,14159.9749,E,1,11,0.9,44.1,M,31.5,M,,0000*69
510,525,577,29.625008,1005.812496
$GPGGA,051929.000,4334.7583,N,14159.9749,E,1,11,0.9,44.1,M,31.5,M,,0000*67
510,525,577,29.625008,1005.812496
$GPGGA,051931.000,4334.7583,N,14159.9749,E,1,11,0.9,44.1,M,31.5,M,,0000*6E
511,525,577,29.625008,1005.812496
$GPGGA,051933.000,4334.7583,N,14159.9749,E,1,11,0.9,44.1,M,31.5,M,,0000*6C
510,526,577,29.625008,1005.812496
$GPGGA,051935.000,4334.7583,N,14159.9749,E,1,11,0.9,44.1,M,31.5,M,,0000*6A
511,525,576,29.625008,1006.203124
$GPGGA,051937.000,4334.7583,N,14159.9749,E,1,11,0.9,44.1,M,31.5,M,,0000*68
510,525,577,29.625008,1005.812496
$GPGGA,051939.000,4334.7583,N,14159.9749,E,1,11,0.9,44.1,M,31.5,M,,0000*66
510,525,576,29.625008,1006.203124
$GPGGA,051941.000,4334.7583,N,14159.9749,E,1,11,0.9,44.1,M,31.5,M,,0000*69
511,525,576,29.625008,1006.640624
$GPGGA,051943.000,4334.7583,N,14159.9749,E,1,11,0.9,44.1,M,31.5,M,,0000*6B
511,525,576,29.625008,1006.203124
$GPGGA,051945.000,4334.7583,N,14159.9749,E,1,11,0.9,44.1,M,31.5,M,,0000*6D
511,525,577,29.625008,1005.812496
$GPGGA,051947.000,4334.7583,N,14159.9749,E,1,11,0.9,44.1,M,31.5,M,,0000*6F
511,525,577,29.625008,1005.812496
$GPGGA,051949.000,4334.7583,N,14159.9749,E,1,11,0.9,44.1,M,31.5,M,,0000*61
510,525,576,29.687504,1005.812496
$GPGGA,051951.000,4334.7583,N,14159.9749,E,1,11,0.9,44.1,M,31.5,M,,0000*68
511,525,577,29.625008,1005.812496
$GPGGA,051953.000,4334.7583,N,14159.9749,E,1,11,0.9,44.1,M,31.5,M,,0000*6A
511,525,576,29.687504,1006.203124
$GPGGA,051955.000,4334.7583,N,14159.9749,E,1,11,0.9,44.1,M,31.5,M,,0000*6C
511,525,576,29.687504,1007.046875
$GPGGA,051957.000,4334.7583,N,14159.9749,E,1,11,0.9,44.1,M,31.5,M,,0000*6E
511,525,577,29.687504,1006.203124
$GPGGA,051959.000,4334.7583,N,14159.9749,E,1,11,0.9,44.1,M,31.5,M,,0000*60
511,525,577,29.625008,1006.203124
$GPGGA,052001.000,4334.7583,N,14159.9749,E,1,11,0.9,44.1,M,31.5,M,,0000*67
510,524,577,29.687504,1005.812496
$GPGGA,052003.000,4334.7583,N,14159.9749,E,1,11,0.9,44.1,M,31.5,M,,0000*65
510,525,576,29.625008,1006.203124
$GPGGA,052005.000,4334.7583,N,14159.9749,E,1,11,0.9,44.1,M,31.5,M,,0000*63
511,525,577,29.687504,1005.812496
$GPGGA,052007.000,4334.7583,N,14159.9749,E,1,11,0.9,44.1,M,31.5,M,,0000*61
511,525,576,29.687504,1006.203124
$GPGGA,052009.000,4334.7583,N,14159.9749,E,1,11,0.9,44.1,M,31.5,M,,0000*6F
511,525,577,29.687504,1005.812496
$GPGGA,052011.000,4334.7583,N,14159.9749,E,1,11,0.9,44.1,M,31.5,M,,0000*66
510,524,577,29.687504,1005.812496
$GPGGA,052013.000,4334.7583,N,14159.9749,E,1,11,0.9,44.1,M,31.5,M,,0000*64
511,525,576,29.687504,1006.203124
$GPGGA,052015.000,4334.7583,N,14159.9749,E,1,11,0.9,44.1,M,31.5,M,,0000*62
511,525,576,29.750000,1006.203124
$GPGGA,052017.000,4334.7583,N,14159.9749,E,1,11,0.9,44.1,M,31.5,M,,0000*60
511,524,576,29.750000,1005.812496
$GPGGA,052019.000,4334.7583,N,14159.9749,E,1,11,0.9,44.1,M,31.5,M,,0000*6E
511,525,576,29.687504,1006.203124
$GPGGA,052021.000,4334.7583,N,14159.9749,E,1,11,0.9,44.1,M,31.5,M,,0000*65
510,527,577,29.687504,1006.203124
$GPGGA,052023.000,4334.7583,N,14159.9749,E,1,11,0.9,44.1,M,31.5,M,,0000*67
511,525,577,29.750000,1006.203124
$GPGGA,052025.000,4334.7583,N,14159.9749,E,1,11,0.9,44.1,M,31.5,M,,0000*61
511,521,576,29.687504,1005.812496
$GPGGA,052027.000,4334.7583,N,14159.9749,E,1,11,0.9,44.1,M,31.5,M,,0000*63
510,525,576,29.750000,1005.812496
$GPGGA,052029.000,4334.7583,N,14159.9749,E,1,11,0.9,44.1,M,31.5,M,,0000*6D
511,525,577,29.812496,1004.968752
$GPGGA,052031.000,4334.7583,N,14159.9749,E,1,11,0.9,44.1,M,31.5,M,,0000*64
511,524,577,29.687504,1004.968752
$GPGGA,052033.000,4334.7583,N,14159.9749,E,1,11,0.9,44.1,M,31.5,M,,0000*66
510,529,577,29.750000,1006.203124
$GPGGA,052035.000,4334.7583,N,14159.9749,E,1,11,0.9,44.1,M,31.5,M,,0000*60
510,525,577,29.750000,1006.203124
$GPGGA,052037.000,4334.7583,N,14159.9749,E,1,11,0.9,44.1,M,31.5,M,,0000*62
511,525,577,29.687504,1005.375000
$GPGGA,052039.000,4334.7583,N,14159.9749,E,1,11,0.9,44.1,M,31.5,M,,0000*6C
511,524,576,29.750000,1004.593744
$GPGGA,052041.000,4334.7583,N,14159.9749,E,1,11,0.9,44.1,M,31.5,M,,0000*63
510,523,576,29.750000,1006.203124
$GPGGA,052043.000,4334.7583,N,14159.9749,E,1,11,0.9,44.1,M,31.5,M,,0000*61
510,525,576,29.687504,1005.812496
$GPGGA,052045.000,4334.7583,N,14159.9749,E,1,11,0.9,44.1,M,31.5,M,,0000*67
511,524,576,29.750000,1004.968752
$GPGGA,052047.000,4334.7583,N,14159.9749,E,1,11,0.9,44.1,M,31.5,M,,0000*65
510,526,576,29.750000,1005.812496
$GPGGA,052049.000,4334.7583,N,14159.9749,E,1,11,0.9,44.1,M,31.5,M,,0000*6B
511,524,576,29.750000,1004.968752
$GPGGA,052051.000,4334.7583,N,14159.9749,E,1,11,0.9,44.1,M,31.5,M,,0000*62
511,525,577,29.750000,1006.203124
$GPGGA,052053.000,4334.7583,N,14159.9749,E,1,11,0.9,44.1,M,31.5,M,,0000*60
510,525,577,29.750000,1005.812496
$GPGGA,052055.000,4334.7583,N,14159.9749,E,1,11,0.9,44.1,M,31.5,M,,0000*66
511,524,576,29.750000,1005.812496
$GPGGA,052057.000,4334.7583,N,14159.9749,E,1,11,0.9,44.1,M,31.5,M,,0000*64
510,525,577,29.750000,1005.812496
$GPGGA,052059.000,4334.7583,N,14159.9749,E,1,11,0.9,44.1,M,31.5,M,,0000*6A
511,529,577,29.750000,1005.812496
$GPGGA,052101.000,4334.7583,N,14159.9749,E,1,11,0.9,44.1,M,31.5,M,,0000*66
511,524,577,29.687504,1005.812496
$GPGGA,052103.000,4334.7583,N,14159.9749,E,1,11,0.9,44.1,M,31.5,M,,0000*64
511,524,575,29.750000,1005.812496
$GPGGA,052105.000,4334.7583,N,14159.9749,E,1,11,0.9,44.1,M,31.5,M,,0000*62
511,525,576,29.750000,1005.437504
$GPGGA,052107.000,4334.7583,N,14159.9749,E,1,11,0.9,44.1,M,31.5,M,,0000*60
509,525,576,29.687504,1005.812496
$GPGGA,052109.000,4334.7583,N,14159.9749,E,1,11,0.9,44.1,M,31.5,M,,0000*6E
511,526,577,29.750000,1006.203124
$GPGGA,052111.000,4334.7583,N,14159.9749,E,1,11,0.9,44.1,M,31.5,M,,0000*67
510,525,576,29.750000,1004.593744
$GPGGA,052113.000,4334.7583,N,14159.9749,E,1,10,1.1,44.1,M,31.5,M,,0000*6D
511,525,576,29.687504,1005.812496
$GPGGA,052115.000,4334.7583,N,14159.9749,E,1,11,0.9,44.1,M,31.5,M,,0000*63
510,524,576,29.750000,1005.812496
$GPGGA,052117.000,4334.7583,N,14159.9749,E,1,11,0.9,44.1,M,31.5,M,,0000*61
511,525,575,29.687504,1006.203124
$GPGGA,052119.000,4334.7583,N,14159.9749,E,1,11,0.9,44.1,M,31.5,M,,0000*6F
512,525,576,29.750000,1005.812496
$GPGGA,052121.000,4334.7583,N,14159.9749,E,1,11,0.9,44.1,M,31.5,M,,0000*64
511,525,576,29.750000,1005.812496
$GPGGA,052123.000,4334.7583,N,14159.9749,E,1,11,0.9,44.1,M,31.5,M,,0000*66
510,525,577,29.750000,1007.046875
$GPGGA,052125.000,4334.7583,N,14159.9749,E,1,11,0.9,44.1,M,31.5,M,,0000*60
510,525,576,29.687504,1006.203124
$GPGGA,052127.000,4334.7583,N,14159.9749,E,1,11,0.9,44.1,M,31.5,M,,0000*62
511,525,576,29.687504,1005.812496
$GPGGA,052129.000,4334.7583,N,14159.9749,E,1,11,0.9,44.1,M,31.5,M,,0000*6C
510,526,577,29.750000,1005.812496
$GPGGA,052131.000,4334.7583,N,14159.9749,E,1,11,0.9,44.1,M,31.5,M,,0000*65
511,525,577,29.687504,1006.203124
$GPGGA,052133.000,4334.7583,N,14159.9749,E,1,11,0.9,44.1,M,31.5,M,,0000*67
511,525,577,29.750000,1005.812496
$GPGGA,052135.000,4334.7583,N,14159.9749,E,1,11,0.9,44.1,M,31.5,M,,0000*61
511,525,577,29.687504,1005.812496
$GPGGA,052137.000,4334.7583,N,14159.9749,E,1,11,0.9,44.1,M,31.5,M,,0000*63
511,525,577,29.750000,1005.812496
$GPGGA,052139.000,4334.7583,N,14159.9749,E,1,11,0.9,44.1,M,31.5,M,,0000*6D
510,525,577,29.750000,1004.593744
$GPGGA,052141.000,4334.7583,N,14159.9749,E,1,11,0.9,44.1,M,31.5,M,,0000*62
511,525,577,29.750000,1005.812496
$GPGGA,052143.000,4334.7583,N,14159.9749,E,1,11,0.9,44.1,M,31.5,M,,0000*60
511,526,577,29.687504,1006.203124
$GPGGA,052145.000,4334.7583,N,14159.9749,E,1,11,0.9,44.1,M,31.5,M,,0000*66
510,527,579,29.750000,1006.203124
$GPGGA,052147.000,4334.7583,N,14159.9749,E,1,11,0.9,44.1,M,31.5,M,,0000*64
510,525,577,29.687504,1007.046875
$GPGGA,052149.000,4334.7583,N,14159.9749,E,1,11,0.9,44.1,M,31.5,M,,0000*6A
510,525,577,29.625008,1005.812496
$GPGGA,052151.000,4334.7583,N,14159.9749,E,1,11,0.9,44.1,M,31.5,M,,0000*63
511,526,577,29.687504,1007.421872
$GPGGA,052153.000,4334.7583,N,14159.9749,E,1,11,0.9,44.1,M,31.5,M,,0000*61
510,525,576,29.625008,1006.203124
$GPGGA,052155.000,4334.7583,N,14159.9749,E,1,11,0.9,44.1,M,31.5,M,,0000*67
510,525,577,29.687504,1006.203124
$GPGGA,052157.000,4334.7583,N,14159.9749,E,1,11,0.9,44.1,M,31.5,M,,0000*65
510,526,577,29.625008,1005.812496
$GPGGA,052159.000,4334.7583,N,14159.9749,E,1,11,0.9,44.1,M,31.5,M,,0000*6B
510,528,577,29.687504,1005.812496
$GPGGA,052201.000,4334.7583,N,14159.9749,E,1,11,0.9,44.1,M,31.5,M,,0000*65
510,526,577,29.625008,1005.812496
$GPGGA,052203.000,4334.7583,N,14159.9749,E,1,11,0.9,44.1,M,31.5,M,,0000*67
510,526,577,29.625008,1005.812496
$GPGGA,052205.000,4334.7583,N,14159.9749,E,1,11,0.9,44.1,M,31.5,M,,0000*61
511,525,576,29.625008,1004.593744
$GPGGA,052207.000,4334.7583,N,14159.9749,E,1,11,0.9,44.1,M,31.5,M,,0000*63
511,521,578,29.625008,1005.812496
$GPGGA,052209.000,4334.7583,N,14159.9749,E,1,11,0.9,44.1,M,31.5,M,,0000*6D
510,525,577,29.687504,1005.812496
$GPGGA,052211.000,4334.7583,N,14159.9749,E,1,11,0.9,44.1,M,31.5,M,,0000*64
510,526,577,29.625008,1005.812496
$GPGGA,052213.000,4334.7583,N,14159.9749,E,1,11,0.9,44.1,M,31.5,M,,0000*66
511,525,577,29.625008,1005.812496
$GPGGA,052215.000,4334.7583,N,14159.9749,E,1,11,0.9,44.1,M,31.5,M,,0000*60
510,525,577,29.625008,1005.812496
$GPGGA,052217.000,4334.7583,N,14159.9749,E,1,11,0.9,44.1,M,31.5,M,,0000*62
511,525,577,29.625008,1006.640624
$GPGGA,052219.000,4334.7583,N,14159.9749,E,1,11,0.9,44.1,M,31.5,M,,0000*6C
510,525,577,29.625008,1006.203124
$GPGGA,052221.000,4334.7583,N,14159.9749,E,1,11,0.9,44.1,M,31.5,M,,0000*67
510,523,577,29.625008,1005.437504
