.000,4334.7543,N,14159.9743,E,1,08,1.1,42.1,M,31.5,M,,0000*6B
535,487,551,24.375000,1006.187500

$GPGGA,060521.000,4334.7589,N,14159.9737,E,1,09,1.0,45.2,M,31.5,M,,0000*61
525,531,582,24.375000,1006.578128

$GPGGA,060523.000,4334.7590,N,14159.9737,E,1,09,1.0,45.5,M,31.5,M,,0000*6C

520,510,563,24.312504,1006.187500
$GPGGA,060525.000,4334.7592,N,14159.9737,E,1,09,1.0,45.8,M,31.5,M,,0000*65

526,487,545,24.312504,1007.000000
$GPGGA,060527.000,4334.7602,N,14159.9729,E,1,09,1.0,45.8,M,31.5,M,,0000*62

528,500,558,24.312504,1007.390624

$GPGGA,060529.000,4334.7611,N,14159.9724,E,1,09,1.0,45.7,M,31.5,M,,0000*6C

533,507,563,24.312504,1006.609376

$GPGGA,060531.000,4334.7622,N,14159.9721,E,1,09,1.0,45.7,M,31.5,M,,0000*60

526,541,556,24.312504,1006.187500
$GPGGA,060533.000,4334.7634,N,14159.9720,E,1,09,1.0,45.6,M,31.5,M,,0000*65

540,494,565,24.375000,1007.390624

$GPGGA,060535.000,4334.7646,N,14159.9719,E,1,09,1.0,45.6,M,31.5,M,,0000*6C
517,528,575,24.312504,1005.796880
$GPGGA,060537.000,4334.7659,N,14159.9718,E,1,09,1.0,41.5,M,,0000*61
538,504,563,24.312504,1007.000000

$GPGGA,060539.000,4334.7673,N,14159.9720,E,1,09,1.0,45.7,M,31.5,M,,0000*6D

536,509,564,24.312504,1007.390624

$GPGGA,060541.000,4334.7687,N,14159.9722,E,1,09,1.0,45.7,M,31.5,M,,0000*6B

523,508,553,24.187500,1006.187500

$G0543.000,4334.7700,N,14159.9724,E,1,09,1.0,45.7,M,31.5,M,,0000*61
514,510,553,24.250000,1007.390624
$GPGGA,060545.000,4334.7712,N,14159.9723,E,1,09,1.0,45.7,M,31.5,M,,0000*63

529,527,586,24.187500,1007.390624

$GPGGA,060547.000,4334.7725,N,14159.9722,E,1,09,1.0,45.8,M,31.5,M,,0000*6B
538,534,566,24.187500,1005.796880
$GPGGA,060549.000,4334.7739,N,14159.9721,E,1,09,1.0,45.9,M,31.5,M,,0000*6A

518,532,575,24.187500,1007.000000

$GPGGA,060551.000,4334.7752,N,14159.9722,E,1,09,1.0,46.0,M,31.5,M,,0000*67

524,505,537,24.187500,1007.000000

$GPGGA,060553.000,4334.7764,N,14159.9729,E,1,09,1.0,46.1,M,31.5,M,,0000*6A

534,525,581,24.125000,1005.000000

$GPGGA,060555.0014159.9733,E,1,09,1.0,46.2,M,31.5,M,,0000*66

527,519,573,24.187500,1007.000000
$GPGGA,060557.000,4334.7792,N,14159.9736,E,1,09,1.0,46.1,M,31.5,M,,0000*69

566,511,548,24.125000,1007.000000

$GPGGA,060559.000,4334.7803,N,14159.9737,E,1,09,1.0,45.9,M,31.5,M,,0000*6A

524,489,556,24.125000,1007.000000

$GPGGA,060601.000,4334.7812,N,14159.9737,E,1,09,1.0,45.8,M,31.5,M,,0000*65
525,542,586,24.125000,1005.390624

$GPGGA,060603.000,4334.7816,N,14159.9737,E,1,09,1.0,46.1,M,31.5,M,,0000*69

519,465,526,24.125000,1007.390624

$GPGGA,060605.000,4334.7826,N,14159.9737,E,1,09,1.0,46.1,M,31.5,M,,0000*6C

522,471,541,24.062500,1005.390624

$GPGGA,060607.000,4334.7840,N,14159.9736,E,1,09,1.0,46.0,M,31.5,M,,0000*6E
505,501,559,24.125000,1006.187500
$GPGGA,060609.000,4334.7854,N,14159.9737,E,1,09,1.0,46.1,M,31.5,M,,0000*65
497,466,535,24.062500,1007.796880

$GPGGA,060611.000,4334.7866,N,14159.9738,E,1,09,1.0,45.8,M,31.5,M,,0000*68

512,486,550,24.062500,1006.609376

$GPGGA,060613.000,4334.7879,N,14159.9738,E,1,09,1.0,45.6,M,31.5,M,,0000*6A

513,466,543,24.000000,1005.390624
$GPGGA,060615.000,4334.7893,N,14159.9739,E,1,09,1.0,45.3,M,31.5,M,,0000*6C

516,494,532,24.000000,1006.203124

$GPGGA,060617.000,4334.7907,N,14159.9741,E,1,09,1.0,45.2,M,31.5,M,,0000*6C
523,490,538,23.812496,1004.625008

$GPGGA,060619.000,4334.7920,N,14159.9743,E,1,08,1.1,45.0,M,31.5,M,,0000*67
510,493,539,23.875008,1006.203124

$GPGGA,060621.000,4334.7936,N,14159.9745,E,1,09,1.0,45.0,M,31.5,M,,0000*6D
498,485,550,23.875008,1006.203124

$GPGGA,060623.000,4334.7950,N,14159.9742,E,1,09,1.0,44.8,M,31.5,M,,0000*61

476,472,532,23.750000,1004.625008
$GPGGA,060625.000,4334.7966,N,14159.9736,E,1,09,1.0,44.6,M,31.5,M,,0000*6F

508,472,527,23.812496,1006.203124
$GPGGA,060627.000,4334.7981,N,14159.9730,E,1,09,1.0,44.7,M,31.5,M,,0000*63
511,498,521,23.750000,1007.015625
$GPGGA,060629.000,4334.7997,N,14159.9722,E,1,09,1.0,44.6,M,31.5,M,,0000*68

515,486,561,23.687504,1005.812496
$GPGGA,060631.000,4334.8012,N,14159.9718,E,1,09,1.0,44.3,M,31.5,M,,0000*66

498,492,537,23.687504,1006.625008

$GPGGA,060633.000,4334.8028,N,14159.9715,E,1,09,1.0,44.0,M,31.5,M,,0000*63
507,503,563,23.625008,1005.812496
$GPGGA,060635.000,4334.8041,N,14159.9719,E,1,09,1.0,44.0,M,31.5,M,,0000*66

516,501,551,23.812496,1007.015625

$GPGGA,060637.000,4334.8054,N,14159.9732,E,1,09,1.0,44.1,M,31.5,M,,0000*68
507,500,557,23.625008,1004.218752

$GPGGA,060639.000,4334.8066,N,14159.9746,E,1,09,1.0,43.9,M,31.5,M,,0000*6B

505,473,548,23.625008,1007.812496

$GPGGA,060641.000,4334.8077,N,14159.9764,E,1,09,1.0,43.8,M,31.5,M,,0000*65
496,463,529,23.437504,1007.015625
$GPGGA,060643.000,4334.8088,N,14159.9784,E,1,09,1.0,43.6,M,31.5,M,,0000*67
498,458,532,23.562496,1006.625008

$GPGGA,060645.000,4334.8094,N,14159.9806,E,1,09,1.0,43.6,M,31.5,M,,0000*69

495,479,553,23.500000,1005.031250
$GPGGA,060647.000,4334.8102,N,14159.9828,E,1,09,1.0,43.3,M,31.5,M,,0000*6C
492,492,529,23.437504,1007.812496
$GPGGA,060649.000,24,N,14159.9843,E,1,09,1.0,43.2,M,31.5,M,,0000*6A
505,460,523,23.375000,1006.625008

$GPGGA,060651.000,4334.8152,N,14159.9846,E,1,09,1.0,43.2,M,31.5,M,,0000*67

501,497,546,23.375000,1005.843744
$GPGGA,060653.000,4334.8173,N,14159.9847,E,1,09,1.0,43.2,M,31.5,M,,0000*67

509,488,537,23.312504,1007.046875

$GPGGA,060655.000,4334.8192,N,14159.9848,E,1,09,1.0,43.3,M,31.5,M,,0000*60

496,476,537,23.250000,1005.843744

$GPGGA,060657.000,4334.8189,N,14159.9847,E,1,09,1.0,43.2,M,31.5,M,,0000*66

500,490,539,22.937504,1006.640624

$GPGGA,060659.000,4334.8207,N,14159.9843,E,1,09,1.0,43.1,M,31.5,M,,0000*6A

483,487,528,23.000000,1005.843744

$GPGGA,060701.000,4334.8228,N,14159.9835,E,1,09,1.0,43.2,M,31.5,M,,0000*69

521,472,516,23.062500,1006.250000
$GPGGA,060703.000,4334.8252,N,14159.9826,E,1,09,1.0,43.6,M,31.5,M,,0000*60

510,458,496,23.062500,1005.0625005.000,43349819,1.0,43.7,M,31.5,M,,0000*6F

509,495,530,23.062500,1006.640624

$GPGGA,060707.000,4334.8299,N,14159.9811,E,1,09,1.0,43.9,M,31.5,M,,0000*68

476,438,501,23.062500,1005.062500

$GPGGA,060709.000,4334.8319,N,14159.9807,E,1,09,1.0,44.2,M,31.5,M,,0000*64

504,451,498,23.062500,1006.250000

$GPGGA,060711.000,4334.8341,N,14159.9808,E,1,09,1.0,45.2,M,31.5,M,,0000*6E

505,493,549,22.937504,1005.875008

$GPGGA,060713.000,4334.8339,N,14159.9809,E,1,09,1.0,45.2,M,31.5,M,,0000*62
497,542,591,22.937504,1005.875008
$GPGGA,060715.000,4334.8339,N,14159.9809,E,1,09,1.0,45.2,M,31.5,M,,0000*64

419,476,501,22.937504,1005.875008

$GPGGA,060717.000,4334.8339,N,14159.9809,E,1,09,1.0,45.2,M,31.5,M,,0000*66

489,539,586,22.937504,1004.656256

$GPGGA,060719.000,4334.8339,N,14159.9809,E,1,09,1.0,45.2,M,31.5,M,,0000*68
486,543,580,22.937504,1005.453128

$GPGGA,060721.000,4334.8339,N,14159.9809,E,1,09,1.0,45.2,M,31.5,M,,0000*63
488,547,581,22.937504,1005.453128
$GPGGA,060723.000,4334.8339,N,14159.9809,E,1,09,1.0,45.2,M,31.5,M,,0000*61

487,543,581,22.875008,1005.062500
$GPGGA,060725.000,4334.8339,N,14159.9809,E,1,09,1.0,45.2,M,31.5,M,,0000*67

489,547,581,22.937504,1006.250000

$GPGGA,060727.000,4334.8339,N,14159.9809,E,1,09,1.0,45.2,M,31.5,M,,0000*65

484,542,582,22.875008,1005.453128
$GPGGA,060729.000,4334.8339,N,14159.9809,E,1,09,1.0,45.2,M,31.5,M,,0000*6B
485,543,580,22.875008,1005.453128

$GPGGA,060731.000,4334.8339,N,14159.9809,E,1,09,1.0,45.2,M,31.5,M,,0000*62

490,534,578,22.875008,1005.453128
$GPGGA,060733.000,4334.8339,N,14159.9809,E,1,09,1.0,45.2,M,31.5,M,,0000*60

490,535,578,22.875008,1005.843744

$GPGGA,060735.000,4334.8339,N,14159.9809,E,1,09,1.0,45.2,M,31.5,M,,0000*66

487,534,578,22.875008,1005.453128
$GPGGA,060737.000,4334.8339,N,14159.9809,E,1,09,1.0,45.2,M,31.5,M,,0000*64

490,536,577,22.875008,1006.250000
$GPG1.000,4334.8339,N,14159.9809,E,1,09,1.0,45.2,M,31.5,M,,0000*65

494,526,574,22.875008,1005.453128
$GPGGA,060743.000,4334.8339,N,14159.9809,E,1,09,1.0,45.2,M,31.5,M,,0000*67

493,531,578,22.875008,1004.265624

$GPGGA,060745.000,4334.8339,N,14159.9809,E,1,09,1.0,45.2,M,31.5,M,,0000*61

496,527,574,22.812496,1007.046875

$GPGGA,060747.000,4334.8339,N,14159.9809,E,1,09,1.0,45.2,M,31.5,M,,0000*63

491,528,569,22.875008,1005.453128

$GPGGA,060749.000,4334.8339,N,14159.9809,E,1,09,1.0,45.2,M,31.5,M,,0000*6D
504,522,571,22.937504,1005.843744
$GPGGA,060751.000,4334.8339,N,14159.9809,E,1,09,1.0,45.2,M,31.5,M,,0000*64

503,519,570,22.875008,1005.843744

$GPGGA,060753.000,4334.8339,N,14159.9809,E,1,09,1.0,45.2,M,31.5,M,,0000*66

503,520,568,23.000000,1006.250000

$GPGGA,060755.000,4334.8339,N,14159.9809,E,1,09,1.0,45.2,M,31.5,M,,0000*60

502,519,566,22.937504,1005.843744
$GPGGA,060757.000,4334.8339,N,14159.9809,E,1,09,1.0,45.2,M,31.5,M,,0000*62

505,514,571,22.937504,1006.625008

$GPGGA,060759.000,4334.8339,N,14159.9809,E,1,09,1.0,45.2,M,31.5,M,,0000*6C

503,518,569,22.875008,1007.812496

$GPGGA,060801.000,4334.8339,N,14159.9809,E,1,09,1.0,45.2,M,31.5,M,,0000*6E
504,515,566,22.937504,1006.250000
$GPGGA,060803.000,4334.8339,N,14159.9809,E,1,09,1.0,45.2,M,31.5,M,,0000*6C

504,519,571,22.937504,1007.437504
$GPGGA,060805.000,4334.8339,N,14159.9809,E,1,09,1.0,45.2,M,31.5,M,,0000*6A

504,517,568,22.875008,1005.437504

$GPGGA,060807.000,4334.8339,N,14159.9809,E,1,09,1.0,45.2,M,31.5,M,,0000*68

503,517,573,23.000000,1006.625008
$GPGGA,060809.000,4334.8339,N,14159.9809,E,1,09,1.0,45.2,M,31.5,M,,0000*66

504,521,570,22.937504,1006.250000

$GPGGA,060811.000,4334.8339,N,14159.9809,E,1,09,1.0,45.2,M,31.5,M,,0000*6F

506,516,568,23.000000,1006.625008

$GPGGA,060813.000,4334.8339,N,14159.9809,E,1,09,1.0,45.2,M,31.5,M,,0000*6D

505,519,570,23.000000,1007.015625

$GPGGA,060815.000,4334.8339,N,14159.9809,E,1,09,1.0,45.2,M,31.5,M,,0000*6B

505,518,570,23.000000,1006.625008
$GPGGA,060817.000,4334.8339,N,14159.9809,E,1,09,1.0,45.2,M,31.5,M,,0000*69

504,521,568,23.000000,1006.625008

$GPGGA,060819.000,4334.8339,N,14159.9809,E,1,09,1.0,45.2,M,31.5,M,,0000*67
504,517,570,23.062500,1007.015625
$GPGGA,060821.000,4334.8339,N,14159.9809,E,1,09,1.0,45.2,M,31.5,M,,0000*6C

505,519,570,23.000000,1007.015625
$GPGGA,060823.000,4334.8339,N,14159.9809,E,1,09,1.0,45.2,M,31.5,M,,0000*6E
506,522,572,23.000000,1006.625008

$GPGGA,060825.000,4334.8339,N,14159.9809,E,1,09,1.0,45.2,M,31.5,M,,0000*68
504,519,570,23.062500,1007.015625

$GPGGA,060827.000,4334.8339,N,14159.9809,E,1,09,1.0,45.2,M,31.5,M,,0000*6A

505,518,572,23.000000,1007.015625

$GPGGA,060829.000,4334.8339,N,14159.9809,E,1,09,1.0,45.2,M,31.5,M,,0000*64

505,520,571,23.062500,1007.015625

$GPGGA,060831.000,4334.8339,N,14159.9809,E,1,09,1.0,45.2,M,31.5,M,,0000*6D

505,519,570,23.125000,1006.625008
$GPGGA,060833.000,4334.8339,N,14159.9809,E,1,09,1.0,45.2,M,31.5,M,,0000*6F

506,517,569,23.062500,1008.218752
$GPGGA,060835.000,4334.8339,N,14159.9809,E,1,09,1.0,45.2,M,31.5,M,,0000*69

506,519,573,23.125000,1007.015625

$GPGGA,060837.000,4334.8339,N,14159.9809,E,1,09,1.0,45.2,M,31.5,M,,0000*6B

506,520,570,23.125000,1007.015625

$GPGGA,060839.000,4334.8339,N,14159.9809,E,1,09,1.0,45.2,M,31.5,M,,0000*65
505,519,570,23.125000,1007.015625
$GPGGA,060841.000,4334.8339,N,14159.9809,E,1,09,1.0,45.2,M,31.5,M,,0000*6A

505,516,569,23.187500,1006.203124

$GPGGA,060843.000,4334.8339,N,14159.9809,E,1,09,1.0,45.2,M,31.5,M,,0000*68

506,519,570,23.125000,1007.015625

$GPGGA,060845.000,4334.8339,N,14159.9809,E,1,09,1.0,45.2,M,31.5,M,,0000*6E
507,519,568,23.187500,1007.390624
$GPGGA,060847.000,4334.8339,N,14159.9809,E,1,09,1.0,45.2,M,31.5,M,,0000*6C
507,514,565,23.187500,1005.812496

$GPGGA,060849.000,4334.8339,N,14159.9809,E,1,09,1.0,45.2,M,31.5,M,,0000*62
506,515,568,23.187500,1005.812496
$GPGGA,060851.000,4334.8339,N,14159.9809,E,1,09,1.0,45.2,M,31.5,M,,0000*6B
505,516,567,23.250000,1007.015625
$GPGGA,060853.000,4334.8339,N,14159.9809,E,1,09,1.0,45.2,M,31.5,M,,0000*69

506,515,567,23.250000,1007.390624

$GPGGA,060855.000,4334.8339,N,14159.9809,E,1,09,1.0,45.2,M,31.5,M,,0000*6F

505,517,564,23.250000,1007.390624

$GPGGA,060857.000,4334.8339,N,14159.9809,E,1,09,1.0,45.2,M,31.5,M,,0000*6D

507,511,568,23.250000,1006.203124
$GPGGA,060859.000,4334.8339,N,14159.9809,E,1,09,1.0,45.2,M,31.5,M,,0000*63

507,515,566,23.250000,1006.203124

$GPGGA,060901.000,4334.8339,N,14159.9809,E,1,09,1.0,45.2,M,31.5,M,,0000*6F

506,515,567,23.312504,1005.812496

$GPGGA,060903.000,4334.8339,N,14159.9809,E,1,09,1.0,45.2,M,31.5,M,,0000*6D
507,514,566,23.312504,1005.812496
$GPGGA,060905.000,4334.8339,N,14159.9809,E,1,09,1.0,45.2,M,31.5,M,,0000*6B
507,516,567,23.375000,1006.203124

$GPGGA,060907.000,4334.8339,N,14159.9809,E,1,09,1.0,45.2,M,31.5,M,,0000*69
506,516,567,23.312504,1004.625008

$GPGGA,060909.000,4334.8339,N,14159.9809,E,1,09,1.0,45.2,M,31.5,M,,0000*67
507,515,568,23.375000,1006.203124

$GPGGA,060911.000,4334.8339,N,14159.9809,E,1,09,1.0,45.2,M,31.5,M,,0000*6E
508,515,567,23.312504,1007.390624
$GPGGA,060913.000,4334.8339,N,14159.9809,E,1,09,1.0,45.2,M,31.5,M,,0000*6C

508,514,567,23.375000,1006.203124

$GPGGA,060915.000,4334.8339,N,14159.9809,E,1,09,1.0,45.2,M,31.5,M,,0000*6A

502,515,567,23.437504,1005.390624

$GPGGA,060917.000,4334.8339,N,14159.9809,E,1,09,1.0,45.2,M,31.5,M,,0000*68
426,487,527,23.375000,1006.609376

$GPGGA,060919.000,4334.8339,N,14159.9809,E,1,09,1.0,45.2,M,31.5,M,,0000*66

442,443,497,23.437504,1006.609376

$GPGGA,060921.000,4334.8339,N,14159.9809,E,1,09,1.0,45.2,M,31.5,M,,0000*6D

557,437,498,23.500000,1006.609376

$GPGGA,060923.000,4334.8339,N,14159.9809,E,1,10,1.0,45.2,M,31.5,M,,0000*67
425,485,572,23.437504,1006.609376
$GPGGA,060925.000,4334.8339,N,14159.9809,E,1,10,1.0,45.2,M,31.5,M,,0000*61

511,547,590,23.500000,1006.203124

$GPGGA,060927.000,4334.8339,N,14159.9809,E,1,10,1.0,45.2,M,31.5,M,,0000*63

548,536,583,23.500000,1005.390624

$GPGGA,060929.000,4334.8339,N,14159.9809,E,1,10,1.0,45.2,M,31.5,M,,0000*6D

518,530,584,23.500000,1005.390624

$GPGGA,060931.000,4334.8339,N,14159.9809,E,1,10,1.0,45.2,M,31.5,M,,0000*64

499,534,585,23.500000,1005.796880

$GPGGA,060933.000,4334.8339,N,14159.9809,E,1,10,1.0,45.2,M,31.5,M,,0000*66

508,523,573,23.500000,1007.000000
$GPGGA,060935.000,4334.8339,N,14159.9809,E,1,10,1.0,45.2,M,31.5,M,,0000*60
503,521,569,23.562496,1005.390624
$GPGGA,060937.000,4334.8339,N,14159.9809,E,1,10,1.0,45.2,M,31.5,M,,0000*62

501,530,573,23.562496,1007.796880

$GPGGA,060939.000,4334.8339,N,14159.9809,E,1,10,1.0,45.2,M,31.5,M,,0000*6C

499,528,577,23.562496,1006.609376

$GPGGA,060941.000,4334.8339,N,14159.9809,E,1,10,1.0,45.2,M,31.5,M,,0000*63

499,535,579,23.562496,1006.203124

$GPGGA,060943.000,4334.8339,N,14159.9809,E,1,10,1.0,45.2,M,31.5,M,,0000*61

498,560,609,23.562496,1006.203124

$GPGGA,060945.000,4334.8339,N,14159.9809,E,1,10,1.0,45.2,M,31.5,M,,0000*67

505,558,602,23.625008,1007.000000

$GPGGA,060946.000,4334.8339,N,14159.9809,E,1,09,1.0,45.2,M,31.5,M,,0000*6C
502,525,577,23.625008,1006.609376

$GPGGA,060948.000,4334.8339,N,14159.9809,E,1,10,1.0,45.2,M,31.5,M,,0000*6A
499,521,571,23.625008,1006.609376
$GPGGA,060950.000,4334.8339,N,14159.9809,E,1,10,1.0,45.2,M,31.5,M,,0000*63

497,522,573,23.625008,1007.000000

$GPGGA,060952.000,4334.8339,N,14159.9809,E,1,10,1.0,45.2,M,31.5,M,,0000*61

493,503,553,23.625008,1005.390624

$GPGGA,060954.000,4334.8339,N,14159.9809,E,1,10,1.0,45.2,M,31.5,M,,0000*67

500,540,583,23.625008,1007.000000

$GPGGA,060956.000,4334.8339,N,14159.9809,E,1,10,1.0,45.2,M,31.5,M,,0000*65

497,520,540,23.687504,1006.609376

$GPGGA,060958.000,4334.8339,N,14159.9809,E,1,10,1.0,45.2,M,31.5,M,,0000*6B

538,458,551,23.687504,1006.609376

$GPGGA,061000.000,4334.8339,N,14159.9809,E,1,10,1.0,45.2,M,31.5,M,,0000*6E

546,494,545,23.687504,1007.796880

$GPGGA,061002.000,4334.8339,N,14159.9809,E,1,10,1.0,45.2,M,31.5,M,,0000*6C

486,480,529,23.687504,1006.609376

$GPGGA,061004.000,4334.8339,N,14159.9809,E,1,10,1.0,45.2,M,31.5,M,,0000*6A

483,479,532,23.687504,1006.609376
$GPGGA,061006.000,4334.8339,N,14159.9809,E,1,10,1.0,45.2,M,31.5,M,,0000*68
495,459,514,23.750000,1006.609376

$GPGGA,061008.000,4334.8339,N,14159.9809,E,1,10,1.0,45.2,M,31.5,M,,0000*66

495,457,507,00,1005.390624

$GPGGA,061010.000,4334.8339,N,14159.9809,E,1,10,1.0,45.2,M,31.5,M,,0000*6F

463,479,532,23.687504,1005.390624
$GPGGA,061012.000,4334.8339,N,14159.9809,E,1,10,1.0,45.2,M,31.5,M,,0000*6D
455,512,549,23.750000,1005.390624
$GPGGA,061014.000,4334.8339,N,14159.9809,E,1,10,1.0,45.2,M,31.5,M,,0000*6B
462,521,564,23.750000,1004.625008

$GPGGA,061016.000,4334.8339,N,14159.9809,E,1,10,1.0,45.2,M,31.5,M,,0000*69

477,528,567,23.687504,1007.000000

$GPGGA,061018.000,4334.8351,N,14159.9810,E,1,10,1.0,47.9,M,31.5,M,,0000*68

549,505,573,23.750000,1004.203124
$GPGGA,061020.000,4334.8342,N,14159.9811,E,1,10,1.0,47.9,M,31.5,M,,0000*60

519,536,592,23.812496,1007.000000
$GPGGA,061022.000,4334.8334,N,14159.9811,E,1,10,1.0,48.1,M,31.5,M,,0000*64
480,548,571,23.750000,1006.609376

$GPGGA,061024.000,4334.8332,N,14159.9811,E,1,10,1.0,48.4,M,31.5,M,,0000*61

491,501,550,23.750000,1005.796880
$GPGGA,061026.000,4334.8332,N,14159.9811,E,1,10,1.0,48.4,M,31.5,M,,0000*63
500,512,558,23.750000,1007.796880
$GPGGA,061028.000,4334.8332,N,14159.9811,E,1,10,1.0,48.4,M,31.5,M,,0000*6D

514,507,567,23.750000,1004.203124

$GPGGA,061030.000,4334.8332,N,14159.9811,E,1,10,1.0,48.4,M,31.5,M,,0000*64

506,520,571,23.750000,1005.796880
$GPGGA,061032.000,4334.8332,N,14159.9811,E,1,10,1.0,48.4,M,31.5,M,,0000*66
503,515,574,23.812496,1007.796880

$GPGGA,061034.000,4334.8332,N,14159.9811,E,1,10,1.0,48.4,M,31.5,M,,0000*60

491,523,572,23.812496,1005.390624

$GPGGA,061036.000,4334.8332,N,14159.9811,E,1,10,1.0,48.4,M,31.5,M,,0000*62

499,523,572,23.812496,1005.390624
$GPGGA,061038.000,4334.8332,N,14159.9811,E,1,10,1.0,48.4,M,31.5,M,,0000*6C
505,525,572,23.812496,1004.593744
$GPGGA,061040.000,4334.8332,N,14159.9811,E,1,10,1.0,48.4,M,31.5,M,,0000*63

505,523,572,23.812496,1005.390624

$GPGGA,061042.000,4334.8332,N,14159.9811,E,1,10,1.0,48.4,M,31.5,M,,0000*61
505,520,571,23.812496,1005.015625

$GPGGA,061044.000,4334.8332,N,14159.9811,E,1,10,1.0,48.4,M,31.5,M,,0000*67
505,520,572,23.875008,1006.609376
$GPGGA,061046.000,4334.8332,N,14159.9811,E,1,10,1.0,48.4,M,31.5,M,,0000*65

505,523,572,23.875008,1007.000000

$GPGGA,061048.000,4334.8332,N,14159.9811,E,1,10,1.0,48.4,M,31.5,M,,0000*6B

506,525,570,23.875008,1006.609376
$GPGGA,061050.000,4334.8332,N,14159.9811,E,1,10,1.0,48.4,M,31.5,M,,0000*62
504,521,573,23.812496,1005.390624

$GPGGA,061052.000,4334.8332,N,14159.9811,E,1,10,1.0,48.4,M,31.5,M,,0000*60

502,522,574,23.875008,1004.593744

$GPGGA,061054.000,4334.8332,N,14159.9811,E,1,10,1.0,48.4,M,31.5,M,,0000*66
505,522,573,23.875008,1005.796880
$GPGGA,061056.000,4334.8332,N,14159.9811,E,1,10,1.0,48.4,M,31.5,M,,0000*64

504,526,572,23.875008,1006.609376

$GPGGA,061058.000,4334.8332,N,14159.9811,E,1,10,1.0,48.4,M,31.5,M,,0000*6A

505,522,573,23.875008,1006.187500

$GPGGA,061100.000,4334.8332,N,14159.9811,E,1,10,1.0,$GPGGA,001850.162,,,,,0,00,,,M,0.0,M,,0000*5F
529,522,572,19.187500,1011.843744
$GPGGA,001851.158,4334.7584,N,14200.0005,E,0,00,,3.5,M,31.5,M,,0000*7F
517,545,592,19.250000,1012.250000
$GPGGA,001853.163,4334.7565,N,14159.9991,E,1,04,2.8,9.6,M,31.5,M,,0000*50
536,520,578,19.250000,1011.843744
$GPGGA,001855.163,4334.7591,N,14159.9758,E,1,07,1.5,42.8,M,31.5,M,,0000*6A

520,564,610,19.250000,1011.453128
$GPGGA,001857.163,4334.7592,N,14159.9750,E,1,08,1.4,42.8,M,31.5,M,,0000*6D

497,518,571,19.250000,1011.046875
$GPGGA,001859.000,4334.7589,N,14159.9746,E,1,09,1.3,44.1,M,31.5,M,,0000*63
501,532,575,19.250000,1011.843744
$GPGGA,001901.000,4334.7589,N,14159.9746,E,1,08,1.4,44.1,M,31.5,M,,0000*69
511,556,579,19.312504,1010.656256
$GPGGA,001903.000,4334.7589,N,14159.9746,E,1,09,1.3,44.1,M,31.5,M,,0000*6D
497,535,579,19.250000,1012.250000
$GPGGA,001905.000,4334.7589,N,14159.9746,E,1,09,1.3,44.1,M,31.5,M,,0000*6B
497,535,579,19.250000,1012.250000
$GPGGA,001907.000,4334.7589,N,14159.9746,E,1,09,1.3,44.1,M,31.5,M,,0000*69
497,535,579,19.312504,1011.046875
$GPGGA,001909.000,4334.7589,N,14159.9746,E,1,09,1.3,44.1,M,31.5,M,,0000*67
19.250000,1012.250000
$GPGGA,001913.000,4334.7589,N,14159.9746,E,1,10,1.0,44.1,M,31.5,M,,0000*67
498,535,579,19.250000,1012.250000

$GPGGA,001914.000,4334.7589,N,14159.9746,E,1,10,1.0,44.1,M,$GPGGA,001916.000,4334.7589,N,14159.9746,E,1,10,1.0,44.1,M,31.5,M,,0000*62
497,535,580,19.250000,1011.843744
$GPGGA,001918.000,4334.7589,N,14159.9746,E,1,10,1.0,44.1,M,31.5,M,,0000*6C

497,535,579,19.250000,1012.250000
$GPGGA,001920.000,4334.7589,N,14159.9746,E,1,10,1.0,44.1,M,31.5,M,,0000*67
497,535,579,19.250000,1012.250000
$GPGGA,001922.000,4334.7589,N,14159.9746,E,1,10,1.0,44.1,M,31.5,M,,0000*65

498,535,579,19.250000,1012.250000
$GPGGA,001924.000,4334.7589,N,14159.9746,E,1,10,1.0,44.1,M,31.5,M,,0000*63

497,535,580,19.250000,1012.250000
$GPGGA,001926.000,4334.7589,N,14159.9746,E,1,10,1.0,44.1,M,31.5,M,,0000*61
485,530,576,19.187500,1011.843744
$GPGGA,001928.000,4334.7589,N,14159.9746,E,1,10,1.0,44.1,M,31.5,M,,0000*6F

491,529,567,19.250000,1012.250000
$GPGGA,002402.561,,,,,0,00,,,M,0.0,M,,0000*50
480,492,575,19.125000,1010.656256
$GPGGA,002404.245,4334.7532,N,14159.9739,E,1,05,3.7,30.8,M,31.5,M,,0000*6F
506,519,580,19.125000,1011.453128
$GPGGA,002406.000,4334.7671,N,14159.9774,E,1,09,1.4,37.1,M,31.5,M,,0000*60
499,543,581,19.125000,1011.843744
$GPGGA,002408.000,4334.7671,N,14159.9774,E,1,10,1.0,37.1,M,31.5,M,,0000*62

493,539,580,19.125000,1011.843744
$GPGGA,002410.000,4334.7671,N,14159.9774,E,1,10,1.0,37.1,M,31.5,M,,0000*6B

521,529,574,19.125000,1011.843744

$GPGGA,002412.000,4334.7671,N,14159.9774,E,1,10,1.0,37.1,M,31.5,M,,0000*69
513,518,562,19.125000,1011.843744
$GPGGA,002414.000,4334.7671,N,14159.9774,E,1,10,1.0,37.1,M,31.5,M,,0000*6F
511,492,546,19.187500,1010.656256

$GPGGA,002416.000,4334.7671,N,14159.9774,E,1,10,1.0,37.1,M,31.5,M,,0000*6D
509,491,552,19.125000,1011.843744
$GPGGA,002418.000,4334.7613,N,14159.9739,E,1,10,1.0,51.2,M,31.5,M,,0000*6D
488,530,575,19.125000,1011.843744
$GPGGA,002420.000,4334.7618,N,14159.9743,E,1,10,1.0,51.6,M,31.5,M,,0000*64

491,516,569,19.125000,1011.453128
$GPGGA,002422.000,4334.7623,N,14159.9752,E,1,10,1.0,50.8,M,31.5,M,,0000*61

517,501,543,19.125000,1010.656256
$GPGGA,002424.000,4334.7621,N,14159.9754,E,1,10,1.0,49.7,M,31.5,M,,0000*64

548,460,519,19.187500,1023.000000
$GPGGA,002426.000,4334.7621,N,14159.9754,E,1,10,1.0,49.8,M,31.5,M,,0000*69
522,519,572,19.187500,1011.453128
$GPGGA,002428.000,4334.7624,N,14159.9759,E,1,10,1.0,48.9,M,31.5,M,,0000*6F

490,494,543,19.187500,1011.453128
$GPGGA,002430.000,4334.7630,N,14159.9762,E,1,10,1.0,48.4,M,31.5,M,,0000*66
512,533,562,19.250000,1011.046875
$GPGGA,002432.000,4334.7639,N,14159.9767,E,1,10,1.0,48.0,M,31.5,M,,0000*6C

490,522,574,19.312504,1012.640624
$GPGGA,002434.000,4334.7646,N,14159.9775,E,1,10,1.0,47.5,M,31.5,M,,0000*6B

513,513,558,19.250000,1010.656256
$GPGGA,002436.000,4334.7654,N,14159.9781,E,1,10,1.0,47.5,M,31.5,M,,0000*61
519,483,540,19.312504,1011.843744
$GPGGA,002438.000,4334.7656,N,14159.9784,E,1,10,1.0,46.7,M,31.5,M,,0000*6B

528,529,580,19.250000,1011.453128
$GPGGA,002440.000,4334.7661,N,14159.9788,E,1,10,1.0,47.2,M,31.5,M,,0000*68

526,480,539,19.312504,1011.453128
$GPGGA,002442.000,4334.7667,N,14159.9794,E,1,10,1.0,47.5,M,31.5,M,,0000*66
571,19.375000,1011.046875
555,19.437504,1010.656256
$GPGGA,002450.000,4334.7705,N,14159.9815,E,1,10,1.0,47.4,M,31.5,M,,0000*67
521,488,565,19.437504,1010.281248
$GPGGA,002452.000,4334.7708,N,14159.9818,E,1,10,1.0,47.3,M,31.5,M,,0000*62

503,506,565,19.375000,1011.046875

533,536,583,19.500000,1009.468752
$GPGGA,002508.000,4334.7725,N,14159.9843,E,1,10,1.0,47.1,M,31.5,M,,0000*6F
512,516,568,19.562496,1011.468752
$GPGGA,002510.000,4334.7725,N,14159.984$GPGGA,002512.000,4334.7725,N,14159.9843,E,1,10,1.0,47.1,M,31.5,M,,0000*64

514,514,567,19.562496,1012.250000
$GPGGA,002514.000,4334.7725,N,14159.9843,E,1,10,1.0,47.1,M,31.5,M,,0000*62

518,512,563,19.625008,1012.640624
$GPGGA,002516.000,4334.7725,N,14159.9843,E,1,10,1.0,47.1,M,31.5,M,,0000*60
509,523,573,19.625008,1012.250000
$GPGGA,002518.000,4334.7725,N,14159.9843,E,1,10,1.0,47.1,M,31.5,M,,0000*6E
516,518,570,19.625008,1011.046875
$GPGGA,002520.000,4334.7725,N,14159.9843,E,1,10,1.0,47.1,M,31.5,M,,0000*65

516,528,580,19.687504,1012.640624
$GPGGA,002522.000,4334.7725,N,14159.9843,E,1,10,1.0,47.1,M,31.5,M,,0000*67
506,525,575,19.687504,1011.468752
$GPGGA,002524.000,4334.7725,N,14159.9843,E,1,10,1.0,47.1,M,31.5,M,,0000*61

507,524,574,19.687504,1010.671872
$GPGGA,002526.000,4334.7725,N,14159.9843,E,1,10,1.0,47.1,M,31.5,M,,0000*63

507,520,557,19.750000,1011.859376
$GPGGA,002528.000,4334.7725,N,14159.9843,E,1,11,0.8,47.1,M,31.5,M,,0000*65
518,520,577,19.750000,1011.468752
$GPGGA,002530.000,4334.7725,N,14159.9843,E,1,11,0.8,47.1,M,31.5,M,,0000*6C

518,516,568,19.750000,1010.671872
$GPGGA,002532.000,4334.7725,N,14159.9843,E,1,11,0.8,47.1,M,31.5,M,,0000*6E

518,516,566,19.812496,1011.468752
$GPGGA,002534.000,4334.7725,N,14159.9843,E,1,11,0.8,47.1,M,31.5,M,,0000*68
507,510,563,19.812496,1011.859376
$GPGGA,002536.000,4334.7725,N,14159.9843,E,1,11,0.8,47.1,M,31.5,M,,0000*6A

512,520,570,19.812496,1010.281248
$GPGGA,002538.000,4334.7725,N,14159.9843,E,1,11,0.8,47.1,M,31.5,M,,0000*64
512,520,571,19.812496,1011.859376
$GPGGA,002539.000,4334.7725,N,14159.9843,E,1,11,0.8,47.1,M,31.5,M,,0000*65
514,520,572,19.812496,1012.265624
$GPGGA,002541.000,4334.7725,N,14159.9843,E,1,11,0.8,47.1,M,31.5,M,,0000*6A

523,532,584,19.875008,1011.078126
$GPGGA,002543.000,4334.7725,N,14159.9843,E,1,11,0.8,47.1,M,31.5,M,,0000*68
576,19.937504,1010.671872
$GPGGA,002547.000,4334.7725,N,14159.9843,E,1,11,0.8,47.1,M,31.5,M,,0000*6C
505,519,567,19.937504,1011.078126
$GPGGA,002549.000,4334.7725,N,14159.9843,E,1,11,0.8,47.1,M,31.5,M,,0000*62

510,520,570,19.937504,1010.671872
$GPGGA,002551.000,4334.7725,N,14159.9843,E,1,11,0.8,47.1,M,31.5,M,,0000*6B
520,509,569,19.937504,1010.671872
547,20.000000,1011.859376

$GPGGA,002557.000,4334.7724,N,14159.9846,E,1,11,0.8,48.3,M,31.5,M,,0000*64
521,543,581,20.062500,1009.484376
$GPGGA,002559.000,4334.7724,N,14159.9846,E,1,11,0.8,48.2,M,31.5,M,,0000*6B
496,527,574,20.312504,1013.046875

468,527,602,20.750000,1011.843744
$GPGGA,002617.000,4334.7724,N,14159.9846,E,1,11,0.8,48.2,M,31.5,M,,0000*62
411,478,570,20.812496,1022.171876
$GPGGA,002619.000,4334.7724,N,14159.9846,E,1,11,0.8,48.2,M,31.5,M,,0000*6C
430,493,577,20.875008,1022.171876
563,20.937504,1021.781248
$GPGGA,002625.000,4334.7724,N,14159.9846,E,1,11,0.8,48.2,M,31.5,M,,0000*63

442,496,530,21.000000,1010.265624
$GPGGA,002627.000,4334.7724,N,14159.9846,E,1,11,0.8,48.2,M,31.5,M,,0000*61

434,493,530,21.125000,1011.843744
$GPGGA,002629.000,4334.7724,N,14159.9846,E,1,11,0.8,48.2,M,31.5,M,,0000*6F
435,493,532,21.125000,1011.453128
$GPGGA,002631.000,4334.7724,N,14159.9846,E,1,11,0.8,48.2,M,31.5,M,,0000*66
427,487,546,21.250000,1011.843744
$GPGGA,002633.000,4334.7724,N,14159.9846,E,1,11,0.8,48.2,M,31.5,M,,0000*64
433,492,540,21.250000,1012.250000
$GPGGA,002635.000,4334.7724,N,14159.9846,E,1,11,0.8,48.2,M,31.5,M,,0000*62
433,491,534,21.312504,1009.468752
$GPGGA,002637.000,4334.7724,N,14159.9846,E,1,11,0.8,48.2,M,31.5,M,,0000*60
436,495,534,21.375000,1012.250000
$GPGGA,002639.000,4334.7724,N,14159.9846,E,1,11,0.8,48.2,M,31.5,M,,0000*6E
436,485,532,21.437504,1011.046875
$GPGGA,002641.000,4334.7724,N,14159.9846,E,1,11,0.8,48.2,M,31.5,M,,0000*61
435,488,553,21.500000,1009.859376
$GPGGA,002643.000,4334.7724,N,14159.9846,E,1,11,0.8,48.2,M,31.5,M,,0000*63
433,494,529,21.562496,1009.859376
$GPGGA,002645.000,4334.7724,N,14159.9846,E,1,11,0.8,48.2,M,31.5,M,,0000*65

442,514,513,21.562496,1010.265624
$GPGGA,002647.000,4334.7724,N,14159.9846,E,1,11,0.8,48.2,M,31.5,M,,0000*67
427,488,512,21.625008,1011.843744

$GPGGA,002649.000,4334.7724,N,14159.9846,E,1,11,0.8,48.2,M,31.5,M,,0000*69
427,491,537,21.687504,1011.843744

$GPGGA,002651.000,4334.7724,N,14159.9846,E,1,11,0.8,48.2,M,31.5,M,,0000*60
431,488,530,21.750000,1010.656256
$GPGGA,002653.000,4334.7724,N,14159.9846,E,1,11,0.8,48.2,M,31.5,M,,0000*62
424,486,539,21.687504,1012.218752
$GPGGA,002655.000,4334.7724,N,14159.9846,E,1,11,0.8,48.2,M,31.5,M,,0000*64
448,499,535,21.812496,1010.656256
$GPGGA,002657.000,4334.7724,N,14159.9846,E,1,11,0.8,48.2,M,31.5,M,,0000*66
425,485,546,21.875008,1012.218752
$GPGGA,002659.000,4334.7724,N,14159.9846,E,1,11,0.8,48.2,M,31.5,M,,0000*68
457,511,555,21.875008,1011.031250
$GPGGA,002701.000,4334.7724,N,14159.9846,E,1,11,0.8,48.2,M,31.5,M,,0000*64

490,550,594,21.937504,1011.031250
$GPGGA,002703.000,4334.7724,N,14159.9846,E,1,11,0.8,48.2,M,31.5,M,,0000*66
521,522,575,22.000000,1011.437504
$GPGGA,002705.000,4334.7724,N,14159.9846,E,1,11,0.8,48.2,M,31.5,M,,0000*60
525,523,572,22.000000,1011.031250
$GPGGA,002707.000,4334.7724,N,14159.9846,E,1,11,0.8,48.2,M,31.5,M,,0000*62
519,513,566,22.000000,1011.031250
$GPGGA,002709.000,4334.7724,N,14159.9846,E,1,11,0.8,48.2,M,31.5,M,,0000*6C
513,515,571,22.125000,1010.234376
$GPGGA,002711.000,4334.7724,N,14159.9846,E,1,11,0.8,48.2,M,31.5,M,,0000*65
507,530,577,22.125000,1009.843744
$GPGGA,002713.000,4334.7724,N,14159.9846,E,1,11,0.8,48.2,M,31.5,M,,0000*67
502,519,570,22.125000,1011.031250
$GPGGA,002715.000,4334.7724,N,14159.9846,E,1,11,0.8,48.2,M,31.5,M,,0000*61
501,518,565,22.187500,1009.843744
$GPGGA,002717.000,4334.7724,N,14159.9846,E,1,11,0.8,48.2,M,31.5,M,,0000*63
504,521,574,22.062500,1011.437504
$GPGGA,002719.000,4334.7724,N,14159.9846,E,1,11,0.8,48.2,M,31.5,M,,0000*6D
504,517,567,22.187500,1011.437504
$GPGGA,002721.000,4334.7724,N,14159.9846,E,1,11,0.8,48.2,M,31.5,M,,0000*66
504,518,571,22.250000,1011.437504
$GPGGA,002723.000,4334.7724,N,14159.9846,E,1,11,0.8,48.2,M,31.5,M,,0000*64
504,518,570,22.187500,1011.031250
$GPGGA,002725.000,4334.7724,N,14159.9846,E,1,11,0.8,48.2,M,31.5,M,,0000*62
504,520,572,22.312504,1010.234376
$GPGGA,002727.000,4334.7724,N,14159.9846,E,1,11,0.8,48.2,M,31.5,M,,0000*60
505,518,569,22.250000,1012.218752
$GPGGA,002729.000,4334.7724,N,14159.9846,E,1,11,0.8,48.2,M,31.5,M,,0000*6E
505,518,570,22.312504,1011.031250
$GPGGA,002731.000,4334.7724,N,14159.9846,E,1,11,0.8,48.2,M,31.5,M,,0000*67
504,518,570,22.312504,1011.031250
$GPGGA,002733.000,4334.7724,N,14159.9846,E,1,12,0.7,48.2,M,31.5,M,,0000*69

504,519,570,22.375000,1011.843744
$GPGGA,002735.000,4334.7724,N,14159.9846,E,1,12,0.7,48.2,M,31.5,M,,0000*6F
504,519,570,22.375000,1010.234376
$GPGGA,002737.000,4334.7724,N,14159.9846,E,1,12,0.7,48.2,M,31.5,M,,0000*6D
504,522,570,22.375000,1012.640624
$GPGGA,002739.000,4334.7724,N,14159.9846,E,1,12,0.7,48.2,M,31.5,M,,0000*63
504,518,570,22.375000,1011.437504
$GPGGA,002741.000,4334.7724,N,14159.9846,E,1,12,0.7,48.2,M,31.5,M,,0000*6C
503,518,570,22.375000,1011.437504
$GPGGA,002743.000,4334.7724,N,14159.9846,E,1,12,0.7,48.2,M,31.5,M,,0000*6E
504,519,570,22.375000,1011.031250
$GPGGA,002745.000,4334.7724,N,14159.9846,E,1,12,0.7,48.2,M,31.5,M,,0000*68
505,520,570,22.437504,1011.031250
$GPGGA,002747.000,4334.7724,N,14159.9846,E,1,12,0.7,48.2,M,31.5,M,,0000*6A
504,519,570,22.375000,1011.437504
$GPGGA,002749.000,4334.7724,N,14159.9846,E,1,12,0.7,48.2,M,31.5,M,,0000*64
504,519,570,22.437504,1011.031250
$GPGGA,002751.000,4334.7724,N,14159.9846,E,1,12,0.7,48.2,M,31.5,M,,0000*6D
504,518,570,22.437504,1011.437504
$GPGGA,002753.000,4334.7724,N,14159.9846,E,1,12,0.7,48.2,M,31.5,M,,0000*6F
461,520,628,22.437504,1011.437504
$GPGGA,002755.000,4334.7724,N,14159.9846,E,1,12,0.7,48.2,M,31.5,M,,0000*69

297,332,454,22.437504,1002.656256
$GPGGA,002757.000,4334.7736,N,14159.9798,E,1,11,0.8,49.6,M,31.5,M,,0000*6D
502,553,593,22.500000,1003.046875
$GPGGA,002759.000,4334.7745,N,14159.9838,E,1,12,0.7,50.8,M,31.5,M,,0000*68
466,529,597,22.562496,1005.453128
$GPGGA,002801.000,4334.7750,N,14159.9872,E,1,12,0.7,53.5,M,31.5,M,,0000*6E

507,481,547,22.687504,1004.656256
$GPGGA,002803.000,4334.7759,N,14159.9895,E,1,12,0.7,57.3,M,31.5,M,,0000*6E
510,560,585,22.812496,1006.640624
$GPGGA,002805.000,4334.7754,N,14159.9910,E,1,12,0.7,61.5,M,31.5,M,,0000*6A
476,561,597,22.750000,1009.453128

$GPGGA,002807.000,4334.7744,N,14159.9912,E,1,12,0.7,63.4,M,31.5,M,,0000*68
483,542,583,22.750000,1010.640624
$GPGGA,002809.000,4334.7745,N,14159.9914,E,1,12,0.7,60.8,M,31.5,M,,0000*6E
482,570,608,22.812496,1010.234376
$GPGGA,002811.000,4334.7761,N,14159.9898,E,1,12,0.7,52.2,M,31.5,M,,0000*6F

443,495,505,22.875008,1010.234376
$GPGGA,002813.000,4334.7771,N,14159.9881,E,1,12,0.7,46.1,M,31.5,M,,0000*62

493,570,552,22.875008,1011.828128
$GPGGA,002815.000,4334.7772,N,14159.9875,E,1,12,0.7,44.1,M,31.5,M,,0000*6E
502,563,590,23.000000,1011.828128
$GPGGA,002817.000,4334.7759,N,14159.9861,E,1,12,0.7,47.4,M,31.5,M,,0000*66
496,559,577,22.937504,1011.437504
$GPGGA,002819.000,4334.7759,N,14159.9861,E,1,12,0.7,47.4,M,31.5,M,,0000*68
541,554,609,23.000000,1010.640624
$GPGGA,002821.000,4334.7759,N,14159.9861,E,1,12,0.7,47.4,M,31.5,M,,0000*63
496,523,575,23.000000,1010.234376

$GPGGA,002823.000,4334.7759,N,14159.9861,E,1,12,0.7,47.4,M,31.5,M,,0000*61
512,565,597,22.937504,1011.406248
$GPGGA,002825.000,4334.7795,N,14159.9835,E,1,12,0.7,47.9,M,31.5,M,,0000*6B
510,528,569,23.062500,1011.031250
$GPGGA,002827.000,4334.7810,N,14159.9833,E,1,12,0.7,47.7,M,31.5,M,,0000*63
555,482,573,23.000000,1012.218752
$GPGGA,002829.000,4334.7823,N,14159.9830,E,1,12,0.7,47.6,M,31.5,M,,0000*6F
541,489,558,23.000000,1010.640624
$GPGGA,002831.000,4334.7834,N,14159.9830,E,1,12,0.7,47.3,M,31.5,M,,0000*65
584,591,586,23.062500,1010.218752
$GPGGA,002833.000,4334.7833,N,14159.9832,E,1,12,0.7,47.6,M,31.5,M,,0000*67
550,530,576,23.062500,1011.406248
$GPGGA,002835.000,4334.7833,N,14159.9832,E,1,12,0.7,47.6,M,31.5,M,,0000*61
521,545,594,23.062500,1011.406248
$GPGGA,002837.000,4334.7816,N,14159.9817,E,1,12,0.7,48.2,M,31.5,M,,0000*68
558,554,592,23.000000,1012.218752
$GPGGA,002839.000,4334.7804,N,14159.9806,E,1,12,0.7,48.4,M,31.5,M,,0000*63

519,508,548,23.000000,1011.406248
$GPGGA,002841.000,4334.7792,N,14159.9795,E,1,12,0.7,48.5,M,31.5,M,,0000*68
559,524,547,23.000000,1009.843744
$GPGGA,002843.000,4334.7780,N,14159.9785,E,1,12,0.7,48.6,M,31.5,M,,0000*6B
571,542,590,22.937504,1012.218752
$GPGGA,002845.000,4334.7767,N,14159.9777,E,1,12,0.7,48.7,M,31.5,M,,0000*68
517,524,581,22.937504,1012.218752
$GPGGA,002847.000,4334.7755,N,14159.9772,E,1,12,0.7,48.8,M,31.5,M,,0000*61
562,560,601,22.875008,1012.609376
$GPGGA,002849.000,4334.7742,N,14159.9771,E,1,12,0.7,48.9,M,31.5,M,,0000*6B
495,542,578,22.937504,1012.218752
$GPGGA,002851.000,4334.7729,N,14159.9773,E,1,11,0.8,49.2,M,31.5,M,,0000*6B
560,557,566,22.937504,1011.828128
$GPGGA,002853.000,4334.7717,N,14159.9778,E,1,12,0.7,49.3,M,31.5,M,,0000*62
550,542,542,22.875008,1010.640624
$GPGGA,002855.000,4334.7704,N,14159.9787,E,1,12,0.7,49.3,M,31.5,M,,0000*66
551,547,586,22.875008,1013.812496
$GPGGA,002857.000,4334.7690,N,14159.9791,E,1,12,0.7,49.6,M,31.5,M,,0000*6A
560,581,613,22.937504,1010.640624
$GPGGA,002859.000,4334.7675,N,14159.9794,E,1,12,0.7,50.0,M,31.5,M,,0000*64
509,539,584,22.875008,1011.828128
$GPGGA,002901.000,4334.7664,N,14159.9803,E,1,12,0.7,50.0,M,31.5,M,,0000*69
583,579,593,22.937504,1011.031250
$GPGGA,002903.000,4334.7657,N,14159.9815,E,1,12,0.7,49.8,M,31.5,M,,0000*6C
538,551,566,22.937504,1011.031250
$GPGGA,002905.000,4334.7653,N,14159.9825,E,1,12,0.7,49.8,M,31.5,M,,0000*6D
559,532,586,22.937504,1011.437504
$GPGGA,002907.000,4334.7653,N,14159.9825,E,1,12,0.7,49.8,M,31.5,M,,0000*6F
558,545,600,23.000000,1011.031250
$GPGGA,002909.000,4334.7648,N,14159.9825,E,1,12,0.7,50.1,M,31.5,M,,0000*6A
524,535,589,23.000000,1011.031250
$GPGGA,002911.000,4334.7641,N,14159.9820,E,1,12,0.7,50.5,M,31.5,M,,0000*6B
561,526,592,23.000000,1011.031250
$GPGGA,002913.000,4334.7632,N,14159.9811,E,1,12,0.7,50.6,M,31.5,M,,0000*6C
579,527,615,23.000000,1009.843744
$GPGGA,002915.000,4334.7623,N,14159.9800,E,1,12,0.7,50.8,M,31.5,M,,0000*64
540,532,590,23.062500,1011.406248
$GPGGA,002917.000,4334.7613,N,14159.9789,E,1,12,0.7,51.0,M,31.5,M,,0000*62
584,555,578,23.000000,1011.406248

$GPGGA,002919.000,4334.7600,N,14159.9778,E,1,12,0.7,51.5,M,31.5,M,,0000*65
568,524,566,23.062500,1011.031250
$GPGGA,002921.000,4334.7590,N,14159.9765,E,1,12,0.7,52.0,M,31.5,M,,0000*6E
572,545,601,23.062500,1012.609376
$GPGGA,002923.000,4334.7582,N,14159.9754,E,1,12,0.7,52.3,M,31.5,M,,0000*6E
558,584,610,23.000000,1011.031250
$GPGGA,002925.000,4334.7576,N,14159.9747,E,1,12,0.7,52.5,M,31.5,M,,0000*67
537,529,579,23.000000,1011.031250
$GPGGA,002927.000,4334.7573,N,14159.9738,E,1,12,0.7,52.6,M,31.5,M,,0000*6B
549,529,579,23.062500,1011.031250
$GPGGA,002929.000,4334.7573,N,14159.9737,E,1,12,0.7,52.6,M,31.5,M,,0000*6A
561,525,582,23.062500,1010.218752
$GPGGA,002931.000,4334.7573,N,14159.9736,E,1,11,0.8,52.7,M,31.5,M,,0000*6F
544,540,591,23.000000,1011.031250
$GPGGA,002933.000,4334.7573,N,14159.9736,E,1,10,0.9,52.7,M,31.5,M,,0000*6D

554,534,584,23.062500,1012.218752
$GPGGA,002935.000,4334.7573,N,14159.9736,E,1,12,0.7,52.7,M,31.5,M,,0000*67

572,539,595,23.000000,1011.031250
$GPGGA,002937.000,4334.7573,N,14159.9736,E,1,10,0.9,52.7,M,31.5,M,,0000*69
501,525,577,23.000000,1012.218752
$GPGGA,002939.000,4334.7573,N,14159.9736,E,1,11,0.8,52.7,M,31.5,M,,0000*67
505,526,576,23.000000,1011.406248
$GPGGA,002941.000,4334.7573,N,14159.9736,E,1,11,0.8,52.7,M,31.5,M,,0000*68
505,526,576,23.000000,1012.609376
$GPGGA,002943.000,4334.7573,N,14159.9736,E,1,10,0.9,52.7,M,31.5,M,,0000*6A
506,527,577,23.000000,1009.843744
$GPGGA,002945.000,4334.7573,N,14159.9736,E,1,11,0.8,52.7,M,31.5,M,,0000*6C
506,526,576,23.000000,1012.218752
$GPGGA,002947.000,4334.7573,N,14159.9736,E,1,11,0.8,52.7,M,31.5,M,,0000*6E
505,530,576,23.000000,1011.031250
$GPGGA,002949.000,4334.7573,N,14159.9736,E,1,10,0.9,52.7,M,31.5,M,,0000*60
506,527,577,23.000000,1012.218752
$GPGGA,002951.000,4334.7573,N,14159.9736,E,1,10,0.9,52.7,M,31.5,M,,0000*69
505,527,577,23.062500,1012.609376
$GPGGA,002953.000,4334.7573,N,14159.9736,E,1,11,0.8,52.7,M,31.5,M,,0000*6B
505,527,577,23.000000,1011.828128
$GPGGA,002955.000,4334.7573,N,14159.9736,E,1,11,0.8,52.7,M,31.5,M,,0000*6D
505,526,575,23.000000,1010.640624
$GPGGA,002957.000,4334.7573,N,14159.9736,E,1,11,0.8,52.7,M,31.5,M,,0000*6F

505,526,576,23.062500,1011.437504
$GPGGA,002959.000,4334.7573,N,14159.9736,E,1,11,0.8,52.7,M,31.5,M,,0000*61
505,528,577,23.062500,1011.828128
$GPGGA,003001.000,4334.7573,N,14159.9736,E,1,11,0.8,52.7,M,31.5,M,,0000*64
505,526,576,22.937504,1010.640624
