$GPGGA,082430.182,,,,,0,00,,,M,0.0,M,,0000*50
$GPGGA,082431.182,,,,,0,00,,,M,0.0,M,,0000*51
$GPGGA,082432.182,,,,,0,00,,,M,0.0,M,,0000*52
$GPGGA,082433.182,,,,,0,00,,,M,0.0,M,,0000*53
$GPGGA,082434.182,,,,,0,00,,,M,0.0,M,,0000*54
$GPGGA,082435.182,,,,,0,00,,,M,0.0,M,,0000*55
$GPGGA,082436.182,,,,,0,00,,,M,0.0,M,,0000*56
$GPGGA,082437.182,,,,,0,00,,,M,0.0,M,,0000*57
$GPGGA,082438.182,,,,,0,00,,,M,0.0,M,,0000*58
$GPGGA,082439.182,,,,,0,00,,,M,0.0,M,,0000*59
$GPGGA,082440.185,,,,,0,00,,,M,0.0,M,,0000*50
$GPGGA,082441.185,,,,,0,00,,,M,0.0,M,,0000*51
$GPGGA,082442.182,,,,,0,00,,,M,0.0,M,,0000*55
$GPGGA,082443.185,,,,,0,00,,,M,0.0,M,,0000*53
$GPGGA,082444.186,,,,,0,00,,,M,0.0,M,,0000*57
$GPGGA,082445.186,4304.5360,N,14120.4085,E,1,04,1.7,57.8,M,33.1,M,,0000*69
$GPGGA,082446.186,4304.5311,N,14120.4179,E,1,04,1.7,48.1,M,33.1,M,,0000*69
$GPGGA,082447.186,4304.5235,N,14120.4215,E,1,04,1.7,25.8,M,33.1,M,,0000*64
$GPGGA,082448.186,4304.5298,N,14120.4161,E,1,04,1.7,53.8,M,33.1,M,,0000*6D
$GPGGA,082449.186,4304.5351,N,14120.4120,E,1,04,1.7,48.6,M,33.1,M,,0000*69
$GPGGA,082450.182,4304.5420,N,14120.4041,E,1,04,1.7,42.8,M,33.1,M,,0000*66
$GPGGA,082451.185,4304.5422,N,14120.4049,E,1,04,1.7,30.0,M,33.1,M,,0000*67
$GPGGA,082452.182,4304.5421,N,14120.4089,E,1,04,1.7,35.8,M,33.1,M,,0000*61
$GPGGA,082453.182,4304.5469,N,14120.4063,E,1,04,1.7,52.8,M,33.1,M,,0000*69
$GPGGA,082454.182,4304.5432,N,14120.4101,E,1,04,1.7,53.2,M,33.1,M,,0000*6E
$GPGGA,082455.182,4304.5481,N,14120.4046,E,1,04,1.7,40.0,M,33.1,M,,0000*65
$GPGGA,082456.182,,,,,0,00,,,M,0.0,M,,0000*50
$GPGGA,082457.182,4304.5589,N,14120.3987,E,1,04,1.7,36.0,M,33.1,M,,0000*6C
$GPGGA,082458.182,4304.5549,N,14120.3995,E,1,04,1.7,47.0,M,33.1,M,,0000*6A
$GPGGA,082459.182,4304.5522,N,14120.3994,E,1,04,1.7,56.1,M,33.1,M,,0000*66
$GPGGA,082500.182,4304.5565,N,14120.3949,E,1,04,1.7,75.0,M,33.1,M,,0000*68
$GPGGA,082501.182,4304.5519,N,14120.4002,E,1,04,1.7,60.2,M,33.1,M,,0000*65
$GPGGA,082502.182,4304.5466,N,14120.4024,E,1,04,1.7,53.6,M,33.1,M,,0000*6F
$GPGGA,082503.182,4304.5458,N,14120.3996,E,1,04,1.7,55.6,M,33.1,M,,0000*62
$GPGGA,082504.182,4304.5412,N,14120.3791,E,1,05,1.5,226.8,M,33.1,M,,0000*59
$GPGGA,082505.182,4304.5476,N,14120.3753,E,1,05,1.5,236.5,M,33.1,M,,0000*58
$GPGGA,082506.000,4304.5440,N,14120.3781,E,1,05,1.5,235.3,M,33.1,M,,0000*5F
$GPGGA,082507.000,4304.5450,N,14120.3772,E,1,05,1.5,243.0,M,33.1,M,,0000*51
$GPGGA,082508.000,4304.5450,N,14120.3772,E,1,05,1.5,243.0,M,33.1,M,,0000*5E
$GPGGA,082509.000,4304.5450,N,14120.3772,E,1,05,1.5,243.0,M,33.1,M,,0000*5F
$GPGGA,082510.000,4304.5450,N,14120.3772,E,1,05,1.5,243.0,M,33.1,M,,0000*57
$GPGGA,082511.000,4304.5450,N,14120.3772,E,1,05,1.5,243.0,M,33.1,M,,0000*56
$GPGGA,082512.000,4304.5450,N,14120.3772,E,1,05,1.4,243.0,M,33.1,M,,0000*54
$GPGGA,082513.000,4304.5450,N,14120.3772,E,1,05,1.4,243.0,M,33.1,M,,0000*55
$GPGGA,082514.000,4304.5450,N,14120.3772,E,1,05,1.4,243.0,M,33.1,M,,0000*52
$GPGGA,082515.000,4304.5450,N,14120.3772,E,1,05,1.4,243.0,M,33.1,M,,0000*53
$GPGGA,082516.000,4304.5450,N,14120.3772,E,1,05,1.4,243.0,M,33.1,M,,0000*50
$GPGGA,082517.000,4304.5450,N,14120.3772,E,1,05,1.4,243.0,M,33.1,M,,0000*51
$GPGGA,082518.000,4304.5450,N,14120.3772,E,1,05,1.4,243.0,M,33.1,M,,0000*5E
$GPGGA,082519.000,4304.5450,N,14120.3772,E,1,05,1.4,243.0,M,33.1,M,,0000*5F
$GPGGA,082520.000,4304.5450,N,14120.3772,E,1,05,1.4,243.0,M,33.1,M,,0000*55
$GPGGA,082521.000,4304.5450,N,14120.3772,E,1,05,1.4,243.0,M,33.1,M,,0000*54
$GPGGA,082522.000,4304.5450,N,14120.3772,E,1,05,1.4,243.0,M,33.1,M,,0000*57
$GPGGA,082523.000,4304.5450,N,14120.3772,E,1,05,1.4,243.0,M,33.1,M,,0000*56
$GPGGA,082524.000,4304.5450,N,14120.3772,E,1,05,1.4,243.0,M,33.1,M,,0000*51
$GPGGA,082525.000,4304.5450,N,14120.3772,E,1,05,1.4,243.0,M,33.1,M,,0000*50
$GPGGA,082526.000,4304.5450,N,14120.3772,E,1,05,1.4,243.0,M,33.1,M,,0000*53
$GPGGA,082527.000,4304.5450,N,14120.3772,E,1,05,1.4,243.0,M,33.1,M,,0000*52
$GPGGA,082528.000,4304.5450,N,14120.3772,E,1,04,3.1,243.0,M,33.1,M,,0000*5B
$GPGGA,082529.000,4304.5450,N,14120.3772,E,1,04,3.1,243.0,M,33.1,M,,0000*5A
$GPGGA,082530.000,4304.5450,N,14120.3772,E,1,04,3.1,243.0,M,33.1,M,,0000*52
$GPGGA,082531.000,4304.5450,N,14120.3772,E,1,05,1.5,243.0,M,33.1,M,,0000*54
$GPGGA,082532.000,4304.5352,N,14120.3858,E,1,06,1.0,201.3,M,33.1,M,,0000*56
$GPGGA,082533.000,4304.5313,N,14120.3883,E,1,06,1.0,193.9,M,33.1,M,,0000*56
$GPGGA,082534.000,4304.5297,N,14120.3888,E,1,06,1.0,192.2,M,33.1,M,,0000*5D
$GPGGA,082535.000,4304.5290,N,14120.3891,E,1,06,1.0,191.1,M,33.1,M,,0000*53
$GPGGA,082536.000,4304.5288,N,14120.3891,E,1,06,1.0,190.3,M,33.1,M,,0000*5A
$GPGGA,082537.000,4304.5288,N,14120.3891,E,1,05,1.3,190.3,M,33.1,M,,0000*5B
$GPGGA,082538.000,4304.5288,N,14120.3891,E,1,06,1.0,190.3,M,33.1,M,,0000*54
$GPGGA,082539.000,4304.5288,N,14120.3891,E,1,06,1.0,190.3,M,33.1,M,,0000*55
$GPGGA,082540.000,4304.5288,N,14120.3891,E,1,06,1.0,190.3,M,33.1,M,,0000*5B
$GPGGA,082541.000,4304.5288,N,14120.3891,E,1,06,1.0,190.3,M,33.1,M,,0000*5A
$GPGGA,082542.000,4304.5288,N,14120.3891,E,1,06,1.0,190.3,M,33.1,M,,0000*59
$GPGGA,082543.000,4304.5288,N,14120.3891,E,1,06,1.0,190.3,M,33.1,M,,0000*58
$GPGGA,082544.000,4304.5288,N,14120.3891,E,1,06,1.0,190.3,M,33.1,M,,0000*5F
$GPGGA,082545.000,4304.5288,N,14120.3891,E,1,06,1.0,190.3,M,33.1,M,,0000*5E
$GPGGA,082546.000,4304.5288,N,14120.3891,E,1,06,1.0,190.3,M,33.1,M,,0000*5D
$GPGGA,082547.000,4304.5288,N,14120.3891,E,1,06,1.0,190.3,M,33.1,M,,0000*5C
$GPGGA,082548.000,4304.5288,N,14120.3891,E,1,06,1.0,190.3,M,33.1,M,,0000*53
$GPGGA,082549.000,4304.5288,N,14120.3891,E,1,06,1.0,190.3,M,33.1,M,,0000*52
$GPGGA,082550.000,4304.5288,N,14120.3891,E,1,06,1.0,190.3,M,33.1,M,,0000*5A
$GPGGA,082551.000,4304.5288,N,14120.3891,E,1,06,1.0,190.3,M,33.1,M,,0000*5B
$GPGGA,082552.000,4304.5288,N,14120.3891,E,1,06,1.0,190.3,M,33.1,M,,0000*58
$GPGGA,082553.000,4304.5288,N,14120.3891,E,1,06,1.0,190.3,M,33.1,M,,0000*59
$GPGGA,082554.000,4304.5288,N,14120.3891,E,1,06,1.0,190.3,M,33.1,M,,0000*5E
$GPGGA,082555.000,4304.5288,N,14120.3891,E,1,06,1.0,190.3,M,33.1,M,,0000*5F
$GPGGA,082556.000,4304.5288,N,14120.3891,E,1,06,1.0,190.3,M,33.1,M,,0000*5C
$GPGGA,082557.000,4304.5288,N,14120.3891,E,1,06,1.0,190.3,M,33.1,M,,0000*5D
$GPGGA,082558.000,4304.5288,N,14120.3891,E,1,06,1.0,190.3,M,33.1,M,,0000*52
$GPGGA,082559.000,4304.5288,N,14120.3891,E,1,06,1.0,190.3,M,33.1,M,,0000*53
$GPGGA,082600.000,4304.5288,N,14120.3891,E,1,06,1.0,190.3,M,33.1,M,,0000*5C
$GPGGA,082601.000,4304.5288,N,14120.3891,E,1,06,1.0,190.3,M,33.1,M,,0000*5D
$GPGGA,082602.000,4304.5288,N,14120.3891,E,1,06,1.0,190.3,M,33.1,M,,0000*5E
$GPGGA,082603.000,4304.5288,N,14120.3891,E,1,06,1.0,190.3,M,33.1,M,,0000*5F
$GPGGA,082604.000,4304.5288,N,14120.3891,E,1,06,1.0,190.3,M,33.1,M,,0000*58
$GPGGA,082605.000,4304.5288,N,14120.3891,E,1,06,1.0,190.3,M,33.1,M,,0000*59
$GPGGA,082606.000,4304.5288,N,14120.3891,E,1,06,1.0,190.3,M,33.1,M,,0000*5A
$GPGGA,082607.000,4304.5288,N,14120.3891,E,1,06,1.0,190.3,M,33.1,M,,0000*5B
$GPGGA,082608.000,4304.5288,N,14120.3891,E,1,05,1.1,190.3,M,33.1,M,,0000*56
$GPGGA,082609.000,4304.5288,N,14120.3891,E,1,06,1.0,190.3,M,33.1,M,,0000*55
$GPGGA,082610.000,4304.5288,N,14120.3891,E,0,00,,190.3,M,33.1,M,,0000*75M,33.1,M,,0000*76
$GPGGA,082614.000,4304.5288,N,14120.3891,E,0,00,,190.3,M,33.1,M,,0000*71
$GPGGA,082615.000,4304.5288,N,14120.3891,E,0,00,,190.3,M,33.1,M,,0000*70
$GPGGA,082616.000,4304.5288,N,14120.3891,E,0,00,,190.3,M,33.1,M,,0000*73
$GPGGA,082617.000,4304.5288,N,14120.3891,E,0,00,,190.3,M,33.1,M,,0000*72
$GPGGA,082618.000,4304.5288,N,14120.3891,E,0,00,,190.3,M,33.1,M,,0000*7D
$GPGGA,082619.000,4304.5288,N,14120.3891,E,0,00,,190.3,M,33.1,M,,0000*7C
$GPGGA,082620.000,4304.5288,N,14120.3891,E,0,00,,190.3,M,33.1,M,,0000*76
$GPGGA,082621.000,4304.5288,N,14120.3891,E,0,00,,190.3,M,33.1,M,,0000*77
$GPGGA,082622.000,4304.5288,N,14120.3891,E,0,00,,190.3,M,33.1,M,,0000*74
$GPGGA,082623.000,4304.5288,N,14120.3891,E,0,00,,190.3,M,33.1,M,,0000*75
$GPGGA,082624.000,,,,,0,00,,,M,0.0,M,,0000*5C
$GPGGA,082625.000,4304.5476,N,14120.3635,E,1,04,2.2,178.5,M,33.1,M,,0000*5F
$GPGGA,082626.082,4304.5470,N,14120.3473,E,1,04,2.2,170.1,M,33.1,M,,0000*5C
$GPGGA,082627.000,4304.5412,N,14120.3359,E,1,04,2.2,162.7,M,33.1,M,,0000*59
$GPGGA,082628.000,4304.5257,N,14120.3103,E,1,04,2.2,146.5,M,33.1,M,,0000*58
$GPGGA,082629.000,4304.5238,N,14120.3048,E,1,04,2.2,137.1,M,33.1,M,,0000*5C
