$GPGGA,023058.000,4304.5390,N,14120.4840,E,1,06,1.6,53.2,M,33.1,M,,0000*66
$GPGGA,023059.000,4304.5390,N,14120.4840,E,1,06,1.6,53.2,M,33.1,M,,0000*67
$GPGGA,023100.000,4304.5390,N,14120.4840,E,1,06,1.6,53.2,M,33.1,M,,0000*6A
$GPGGA,023101.000,4304.5390,N,14120.4840,E,1,06,1.6,53.2,M,33.1,M,,0000*6B
$GPGGA,023102.000,4304.5390,N,14120.4840,E,1,06,1.6,53.2,M,33.1,M,,0000*68
$GPGGA,023103.000,4304.5388,N,14120.4698,E,1,06,1.6,46.8,M,33.1,M,,0000*65
$GPGGA,023104.000,4304.5385,N,14120.4706,E,1,06,1.6,46.9,M,33.1,M,,0000*68
$GPGGA,023105.000,4304.5384,N,14120.4713,E,1,06,1.6,46.9,M,33.1,M,,0000*6C
$GPGGA,023106.000,4304.5382,N,14120.4719,E,1,06,1.6,46.7,M,33.1,M,,0000*6D
$GPGGA,023107.000,4304.5379,N,14120.4728,E,1,06,1.6,46.5,M,33.1,M,,0000*68
$GPGGA,023108.000,4304.5375,N,14120.4733,E,1,06,1.6,46.1,M,33.1,M,,0000*65
$GPGGA,023109.000,4304.5375,N,14120.4733,E,1,06,1.6,46.1,M,33.1,M,,0000*64
$GPGGA,023110.000,4304.5375,N,14120.4733,E,1,06,1.6,46.1,M,33.1,M,,0000*6C
$GPGGA,023111.000,4304.5375,N,14120.4733,E,1,06,1.6,46.1,M,33.1,M,,0000*6D
$GPGGA,023112.000,4304.5375,N,14120.4733,E,1,06,1.6,46.1,M,33.1,M,,0000*6E
$GPGGA,023113.000,4304.5375,N,14120.4733,E,1,06,1.6,46.1,M,33.1,M,,0000*6F
$GPGGA,023114.000,4304.5375,N,14120.4733,E,1,05,6.9,46.1,M,33.1,M,,0000*63
$GPGGA,023115.000,4304.5375,N,14120.4733,E,1,05,3.6,46.1,M,33.1,M,,0000*68
$GPGGA,023116.000,4304.5375,N,14120.4733,E,1,05,3.6,46.1,M,33.1,M,,0000*6B
$GPGGA,023117.000,4304.5375,N,14120.4733,E,1,06,3.5,46.1,M,33.1,M,,0000*6A
$GPGGA,023118.000,4304.5375,N,14120.4733,E,1,07,1.3,46.1,M,33.1,M,,0000*60
$GPGGA,023119.000,4304.5375,N,14120.4733,E,1,07,1.3,46.1,M,33.1,M,,0000*61
$GPGGA,023120.000,4304.5375,N,14120.4733,E,1,07,1.3,46.1,M,33.1,M,,0000*6B
$GPGGA,023121.000,4304.5375,N,14120.4733,E,1,07,1.3,46.1,M,33.1,M,,0000*6A
$GPGGA,023122.000,4304.5375,N,14120.4733,E,1,06,1.6,46.1,M,33.1,M,,0000*6D
$GPGGA,023123.000,4304.5375,N,14120.4733,E,1,06,1.6,46.1,M,33.1,M,,0000*6C
$GPGGA,023124.000,4304.5375,N,14120.4733,E,1,06,1.6,46.1,M,33.1,M,,0000*6B
$GPGGA,023125.000,4304.5375,N,14120.4733,E,1,07,1.3,46.1,M,33.1,M,,0000*6E
$GPGGA,023126.000,4304.5375,N,14120.4733,E,1,07,1.3,46.1,M,33.1,M,,0000*6D
$GPGGA,023127.000,4304.5375,N,14120.4733,E,1,06,1.6,46.1,M,33.1,M,,0000*68
$GPGGA,023128.000,4304.5375,N,14120.4733,E,1,06,1.6,46.1,M,33.1,M,,0000*67
$GPGGA,023129.000,4304.5375,N,14120.4733,E,1,06,1.6,46.1,M,33.1,M,,0000*66
$GPGGA,023130.000,4304.5375,N,14120.4733,E,1,06,1.6,46.1,M,33.1,M,,0000*6E
$GPGGA,023131.000,4304.5375,N,14120.4733,E,1,06,1.6,46.1,M,33.1,M,,0000*6F
$GPGGA,023132.000,4304.5375,N,14120.4733,E,1,06,1.6,46.1,M,33.1,M,,0000*6C
$GPGGA,023133.000,4304.5375,N,14120.4733,E,1,06,1.9,46.1,M,33.1,M,,0000*62
$GPGGA,023134.000,4304.5375,N,14120.4733,E,1,07,1.3,46.1,M,33.1,M,,0000*6E
$GPGGA,023135.000,4304.5375,N,14120.4733,E,1,07,1.3,46.1,M,33.1,M,,0000*6F
$GPGGA,023136.000,4304.5375,N,14120.4733,E,1,07,1.3,46.1,M,33.1,M,,0000*6C
$GPGGA,023137.000,4304.5363,N,14120.4745,E,1,07,1.3,39.1,M,33.1,M,,0000*63
$GPGGA,023138.000,4304.5352,N,14120.4745,E,1,06,1.6,38.9,M,33.1,M,,0000*63
$GPGGA,023139.000,4304.5328,N,14120.4743,E,1,06,1.6,38.0,M,33.1,M,,0000*60
$GPGGA,023140.000,4304.5312,N,14120.4742,E,1,06,1.6,37.4,M,33.1,M,,0000*6D
$GPGGA,023141.000,4304.5294,N,14120.4738,E,1,06,1.6,36.7,M,33.1,M,,0000*6C
$GPGGA,023142.000,4304.5281,N,14120.4736,E,1,06,1.6,36.1,M,33.1,M,,0000*63
$GPGGA,023143.000,4304.5278,N,14120.4735,E,1,06,1.6,35.9,M,33.1,M,,0000*6C
$GPGGA,023144.000,4304.5277,N,14120.4735,E,1,06,1.6,35.8,M,33.1,M,,0000*65
$GPGGA,023145.000,4304.5277,N,14120.4738,E,1,06,1.6,35.9,M,33.1,M,,0000*68
$GPGGA,023146.000,4304.5276,N,14120.4741,E,1,06,1.6,36.0,M,33.1,M,,0000*6E
$GPGGA,023147.000,4304.5276,N,14120.4745,E,1,06,1.6,35.9,M,33.1,M,,0000*61
$GPGGA,023148.000,4304.5274,N,14120.4746,E,1,06,1.6,35.9,M,33.1,M,,0000*6F
$GPGGA,023149.000,4304.5264,N,14120.4753,E,1,06,1.6,35.7,M,33.1,M,,0000*65
$GPGGA,023150.000,4304.5257,N,14120.4758,E,1,06,1.6,35.4,M,33.1,M,,0000*65
$GPGGA,023151.000,4304.5251,N,14120.4763,E,1,06,1.6,35.3,M,33.1,M,,0000*6D
$GPGGA,023152.000,4304.5242,N,14120.4764,E,1,06,1.6,35.1,M,33.1,M,,0000*69
$GPGGA,023153.000,4304.5235,N,14120.4769,E,1,06,1.6,34.8,M,33.1,M,,0000*6D
$GPGGA,023154.000,4304.5231,N,14120.4776,E,1,06,1.6,34.7,M,33.1,M,,0000*6F
$GPGGA,023155.000,4304.5229,N,14120.4783,E,1,06,1.6,34.5,M,33.1,M,,0000*6F
$GPGGA,023156.000,4304.5225,N,14120.4791,E,1,06,1.6,34.5,M,33.1,M,,0000*63
$GPGGA,023157.000,4304.5223,N,14120.4797,E,1,06,1.6,34.4,M,33.1,M,,0000*63
$GPGGA,023158.000,4304.5223,N,14120.4801,E,1,06,1.6,34.3,M,33.1,M,,0000*6B
$GPGGA,023159.000,4304.5222,N,14120.4805,E,1,06,1.6,34.3,M,33.1,M,,0000*6F
$GPGGA,023200.000,4304.5219,N,14120.4808,E,1,06,1.6,34.1,M,33.1,M,,0000*67
$GPGGA,023201.000,4304.5217,N,14120.4809,E,1,06,1.6,34.0,M,33.1,M,,0000*68
$GPGGA,023202.000,4304.5221,N,14120.4812,E,1,06,1.6,33.7,M,33.1,M,,0000*64
$GPGGA,023203.000,4304.5222,N,14120.4813,E,1,06,1.6,33.6,M,33.1,M,,0000*66
$GPGGA,023204.000,4304.5223,N,14120.4818,E,1,06,1.6,33.4,M,33.1,M,,0000*69
$GPGGA,023205.000,4304.5223,N,14120.4822,E,1,06,1.6,33.3,M,33.1,M,,0000*66
$GPGGA,023206.000,4304.5225,N,14120.4827,E,1,06,1.6,33.0,M,33.1,M,,0000*65
$GPGGA,023207.000,4304.5224,N,14120.4831,E,1,06,1.6,32.9,M,33.1,M,,0000*6A
$GPGGA,023208.000,4304.5216,N,14120.4834,E,1,06,1.6,32.7,M,33.1,M,,0000*6F
$GPGGA,023209.000,4304.5207,N,14120.4838,E,1,06,1.6,32.4,M,33.1,M,,0000*61
$GPGGA,023210.000,4304.5205,N,14120.4843,E,1,06,1.6,32.3,M,33.1,M,,0000*60
$GPGGA,023211.000,4304.5199,N,14120.4848,E,1,06,1.6,31.8,M,33.1,M,,0000*64
$GPGGA,023212.000,4304.5196,N,14120.4848,E,1,06,1.6,31.3,M,33.1,M,,0000*63
$GPGGA,023213.000,4304.5193,N,14120.4853,E,1,05,6.8,31.1,M,33.1,M,,0000*65
$GPGGA,023214.000,4304.5190,N,14120.4855,E,1,06,1.6,30.8,M,33.1,M,,0000*65
$GPGGA,023215.000,4304.5189,N,14120.4852,E,1,06,1.6,30.6,M,33.1,M,,0000*65
$GPGGA,023216.000,4304.5189,N,14120.4852,E,1,06,1.6,30.6,M,33.1,M,,0000*66
$GPGGA,023217.000,4304.5190,N,14120.4857,E,1,06,1.6,30.5,M,33.1,M,,0000*69
$GPGGA,023218.000,4304.5190,N,14120.4863,E,1,06,1.6,30.6,M,33.1,M,,0000*62
$GPGGA,023219.000,4304.5189,N,14120.4870,E,1,06,1.6,30.8,M,33.1,M,,0000*67
$GPGGA,023220.000,4304.5177,N,14120.4873,E,1,06,1.6,30.6,M,33.1,M,,0000*61
$GPGGA,023221.000,4304.5171,N,14120.4876,E,1,06,1.6,30.6,M,33.1,M,,0000*63
$GPGGA,023222.000,4304.5169,N,14120.4883,E,1,06,1.6,30.6,M,33.1,M,,0000*63
$GPGGA,023223.000,4304.5166,N,14120.4888,E,1,06,1.6,30.7,M,33.1,M,,0000*67
$GPGGA,023224.000,4304.5162,N,14120.4893,E,1,06,1.6,30.7,M,33.1,M,,0000*6E
$GPGGA,023225.000,4304.5157,N,14120.4897,E,1,06,1.6,30.7,M,33.1,M,,0000*6D
$GPGGA,023226.000,4304.5151,N,14120.4900,E,1,06,1.6,30.7,M,33.1,M,,0000*67
$GPGGA,023227.000,4304.5146,N,14120.4903,E,1,06,1.6,30.6,M,33.1,M,,0000*62
$GPGGA,023228.000,4304.5140,N,14120.4907,E,1,06,1.6,30.7,M,33.1,M,,0000*6E
$GPGGA,023229.000,4304.5134,N,14120.4910,E,1,06,1.6,30.7,M,33.1,M,,0000*6A
$GPGGA,023230.000,4304.5128,N,14120.4914,E,1,07,1.3,30.7,M,33.1,M,,0000*6F
$GPGGA,023231.000,4304.5124,N,14120.4920,E,1,07,1.3,30.7,M,33.1,M,,0000*65
$GPGGA,023232.000,4304.5120,N,14120.4927,E,1,07,1.3,30.6,M,33.1,M,,0000*64
$GPGGA,023233.000,4304.5115,N,14120.4933,E,1,07,1.3,30.5,M,33.1,M,,0000*65
$GPGGA,023234.000,4304.5111,N,14120.4941,E,1,07,1.3,30.4,M,33.1,M,,0000*62
$GPGGA,023235.000,4304.5107,N,14120.4949,E,1,07,1.3,30.2,M,33.1,M,,0000*6A
$GPGGA,023236.000,4304.5106,N,14120.4957,E,1,07,1.3,30.1,M,33.1,M,,0000*64
$GPGGA,023237.000,4304.5106,N,14120.4965,E,1,07,1.3,29.8,M,33.1,M,,0000*65
$GPGGA,023238.000,4304.5105,N,14120.4970,E,1,07,1.3,29.4,M,33.1,M,,0000*61
$GPGGA,023239.000,4304.5103,N,14120.4973,E,1,07,1.3,28.9,M,33.1,M,,0000*69
$GPGGA,023240.000,4304.5104,N,14120.4975,E,1,07,1.3,28.5,M,33.1,M,,0000*6A
$GPGGA,023241.000,4304.5104,N,14120.4979,E,1,07,1.3,28.3,M,33.1,M,,0000*61
$GPGGA,023242.000,4304.5103,N,14120.4984,E,1,07,1.3,28.1,M,33.1,M,,0000*65
$GPGGA,023243.000,4304.5102,N,14120.4988,E,1,07,1.3,28.1,M,33.1,M,,0000*69
$GPGGA,023244.000,4304.5099,N,14120.4992,E,1,07,1.3,27.9,M,33.1,M,,0000*61
$GPGGA,023245.000,4304.5095,N,14120.4996,E,1,07,1.3,27.9,M,33.1,M,,0000*68
$GPGGA,023246.000,4304.5093,N,14120.5003,E,1,07,1.3,27.5,M,33.1,M,,0000*65
$GPGGA,023247.000,4304.5092,N,14120.5013,E,1,07,1.3,27.1,M,33.1,M,,0000*60
$GPGGA,023248.000,4304.5093,N,14120.5022,E,1,07,1.3,26.9,M,33.1,M,,0000*65
$GPGGA,023249.000,4304.5093,N,14120.5030,E,1,07,1.3,26.9,M,33.1,M,,0000*67
$GPGGA,023250.000,4304.5092,N,14120.5039,E,1,07,1.3,26.4,M,33.1,M,,0000*6A
$GPGGA,023251.000,4304.5092,N,14120.5047,E,1,07,1.3,25.9,M,33.1,M,,0000*6C
$GPGGA,023252.000,4304.5094,N,14120.5056,E,1,05,3.7,25.4,M,33.1,M,,0000*60
$GPGGA,023253.000,4304.5094,N,14120.5064,E,1,05,3.7,25.0,M,33.1,M,,0000*64
$GPGGA,023254.000,4304.5097,N,14120.5072,E,1,05,3.7,24.1,M,33.1,M,,0000*67
$GPGGA,023255.000,4304.5099,N,14120.5080,E,1,05,3.7,23.3,M,33.1,M,,0000*60
$GPGGA,023256.000,4304.5102,N,14120.5089,E,1,05,3.7,22.4,M,33.1,M,,0000*6F
$GPGGA,023257.000,4304.5106,N,14120.5098,E,1,05,3.7,21.5,M,33.1,M,,0000*68
$GPGGA,023258.000,4304.5110,N,14120.5105,E,1,06,1.6,20.9,M,33.1,M,,0000*68
$GPGGA,023259.000,4304.5115,N,14120.5112,E,1,06,1.6,20.3,M,33.1,M,,0000*60
$GPGGA,023300.000,4304.5119,N,14120.5118,E,1,05,3.7,19.7,M,33.1,M,,0000*65
$GPGGA,023301.000,4304.5125,N,14120.5124,E,1,05,3.7,19.2,M,33.1,M,,0000*61
$GPGGA,023302.000,4304.5130,N,14120.5128,E,1,05,3.7,18.9,M,33.1,M,,0000*60
$GPGGA,023303.000,4304.5137,N,14120.5131,E,1,05,3.7,18.9,M,33.1,M,,0000*6E
$GPGGA,023304.000,4304.5144,N,14120.5132,E,1,06,3.6,19.0,M,33.1,M,,0000*64
$GPGGA,023305.000,4304.5148,N,14120.5127,E,1,06,3.6,18.9,M,33.1,M,,0000*65
$GPGGA,023306.000,4304.5151,N,14120.5121,E,1,06,3.6,18.7,M,33.1,M,,0000*66
$GPGGA,023307.000,4304.5156,N,14120.5114,E,1,06,3.6,18.3,M,33.1,M,,0000*62
$GPGGA,023308.000,4304.5161,N,14120.5105,E,1,07,1.3,18.0,M,33.1,M,,0000*6C
$GPGGA,023309.000,4304.5164,N,14120.5098,E,1,07,1.3,17.6,M,33.1,M,,0000*64
$GPGGA,023310.000,4304.5167,N,14120.5093,E,1,07,1.3,17.4,M,33.1,M,,0000*66
$GPGGA,023311.000,4304.5172,N,14120.5088,E,1,07,1.3,17.2,M,33.1,M,,0000*6F
$GPGGA,023312.000,4304.5177,N,14120.5083,E,1,07,1.3,17.0,M,33.1,M,,0000*60
$GPGGA,023313.000,4304.5181,N,14120.5077,E,1,07,1.3,17.0,M,33.1,M,,0000*63
$GPGGA,023314.000,4304.5184,N,14120.5075,E,1,06,1.3,17.1,M,33.1,M,,0000*63
$GPGGA,023315.000,4304.5188,N,14120.5074,E,1,06,3.6,17.0,M,33.1,M,,0000*69
$GPGGA,023316.000,4304.5195,N,14120.5073,E,1,07,1.3,17.0,M,33.1,M,,0000*67
$GPGGA,023317.000,4304.5201,N,14120.5071,E,1,07,1.3,17.2,M,33.1,M,,0000*68
$GPGGA,023318.000,4304.5209,N,14120.5070,E,1,07,1.3,17.3,M,33.1,M,,0000*6F
$GPGGA,023319.000,4304.5215,N,14120.5069,E,1,07,1.3,17.3,M,33.1,M,,0000*6B
$GPGGA,023320.000,4304.5221,N,14120.5068,E,1,07,1.3,17.4,M,33.1,M,,0000*60
$GPGGA,023321.000,4304.5228,N,14120.5065,E,1,07,1.3,17.4,M,33.1,M,,0000*65
$GPGGA,023322.000,4304.5229,N,14120.5060,E,1,07,1.3,18.4,M,33.1,M,,0000*6D
$GPGGA,023323.000,4304.5236,N,14120.5057,E,1,07,1.3,18.6,M,33.1,M,,0000*64
$GPGGA,023324.000,4304.5246,N,14120.5055,E,1,07,1.3,18.5,M,33.1,M,,0000*65
$GPGGA,023325.000,4304.5255,N,14120.5054,E,1,07,1.3,18.5,M,33.1,M,,0000*67
$GPGGA,023326.000,4304.5266,N,14120.5055,E,1,07,1.3,18.6,M,33.1,M,,0000*66
$GPGGA,023327.000,4304.5274,N,14120.5055,E,1,07,1.3,18.8,M,33.1,M,,0000*6A
$GPGGA,023328.000,4304.5281,N,14120.5055,E,1,07,1.3,18.8,M,33.1,M,,0000*6F
$GPGGA,023329.000,4304.5291,N,14120.5055,E,1,06,1.6,18.7,M,33.1,M,,0000*64
$GPGGA,023330.000,4304.5300,N,14120.5053,E,1,07,1.3,19.0,M,33.1,M,,0000*61
$GPGGA,023331.000,4304.5312,N,14120.5050,E,1,07,1.3,19.3,M,33.1,M,,0000*63
$GPGGA,023332.000,4304.5321,N,14120.5048,E,1,07,1.3,19.3,M,33.1,M,,0000*69
$GPGGA,023333.000,4304.5329,N,14120.5045,E,1,07,1.3,19.2,M,33.1,M,,0000*6C
$GPGGA,023334.000,4304.5338,N,14120.5043,E,1,07,1.3,19.3,M,33.1,M,,0000*6C
$GPGGA,023335.000,4304.5345,N,14120.5040,E,1,07,1.3,19.4,M,33.1,M,,0000*63
$GPGGA,023336.000,4304.5351,N,14120.5038,E,1,07,1.3,19.3,M,33.1,M,,0000*6D
$GPGGA,023337.000,4304.5358,N,14120.5033,E,1,07,1.3,19.5,M,33.1,M,,0000*68
$GPGGA,023338.000,4304.5365,N,14120.5029,E,1,07,1.3,19.6,M,33.1,M,,0000*61
$GPGGA,023339.000,4304.5374,N,14120.5027,E,1,07,1.3,19.7,M,33.1,M,,0000*6F
$GPGGA,023340.000,4304.5378,N,14120.5024,E,1,07,1.3,19.8,M,33.1,M,,0000*61
$GPGGA,023341.000,4304.5385,N,14120.5021,E,1,07,1.3,19.8,M,33.1,M,,0000*67
$GPGGA,023342.000,4304.5390,N,14120.5018,E,1,07,1.3,20.0,M,33.1,M,,0000*68
$GPGGA,023343.000,4304.5390,N,14120.5018,E,1,06,1.3,20.0,M,33.1,M,,0000*68
$GPGGA,023344.000,4304.5399,N,14120.5012,E,1,06,1.3,20.5,M,33.1,M,,0000*69
$GPGGA,023345.000,4304.5407,N,14120.5012,E,1,06,1.3,20.6,M,33.1,M,,0000*6B
$GPGGA,023346.000,4304.5413,N,14120.5011,E,1,06,1.3,20.8,M,33.1,M,,0000*60
$GPGGA,023347.000,4304.5427,N,14120.5011,E,1,07,1.3,20.6,M,33.1,M,,0000*69
$GPGGA,023348.000,4304.5436,N,14120.5010,E,1,06,1.3,20.6,M,33.1,M,,0000*66
$GPGGA,023349.000,4304.5443,N,14120.5008,E,1,06,1.3,20.7,M,33.1,M,,0000*6D
$GPGGA,023350.000,4304.5450,N,14120.5008,E,1,06,1.3,21.0,M,33.1,M,,0000*61
$GPGGA,023351.000,4304.5457,N,14120.5007,E,1,06,1.3,21.4,M,33.1,M,,0000*6C
$GPGGA,023352.000,4304.5460,N,14120.5005,E,1,06,1.3,22.0,M,33.1,M,,0000*6E
$GPGGA,023353.000,4304.5465,N,14120.5005,E,1,07,1.3,22.2,M,33.1,M,,0000*69
$GPGGA,023354.000,4304.5469,N,14120.5003,E,1,06,1.3,22.8,M,33.1,M,,0000*6F
$GPGGA,023355.000,4304.5474,N,14120.5003,E,1,06,1.3,23.4,M,33.1,M,,0000*6F
$GPGGA,023356.000,4304.5481,N,14120.5004,E,1,07,1.3,23.8,M,33.1,M,,0000*6C
$GPGGA,023357.000,4304.5488,N,14120.5007,E,1,07,1.3,24.3,M,33.1,M,,0000*6B
$GPGGA,023358.000,4304.5499,N,14120.5007,E,1,07,1.3,24.8,M,33.1,M,,0000*6F
$GPGGA,023359.000,4304.5507,N,14120.5006,E,1,07,1.3,25.0,M,33.1,M,,0000*60
$GPGGA,023400.000,4304.5513,N,14120.5003,E,1,06,1.3,25.6,M,33.1,M,,0000*6C
$GPGGA,023401.000,4304.5526,N,14120.5001,E,1,07,1.3,25.9,M,33.1,M,,0000*67
$GPGGA,023402.000,4304.5538,N,14120.4998,E,1,07,1.3,26.3,M,33.1,M,,0000*6A
$GPGGA,023403.000,4304.5547,N,14120.4994,E,1,06,1.6,26.7,M,33.1,M,,0000*6F
$GPGGA,023404.000,4304.5549,N,14120.4990,E,1,05,1.7,27.3,M,33.1,M,,0000*65
$GPGGA,023405.000,4304.5551,N,14120.4986,E,1,06,1.6,27.7,M,33.1,M,,0000*6C
$GPGGA,023406.000,4304.5552,N,14120.4983,E,1,06,1.6,28.1,M,33.1,M,,0000*60
$GPGGA,023407.000,4304.5558,N,14120.4980,E,1,06,1.6,28.6,M,33.1,M,,0000*6F
$GPGGA,023408.000,4304.5567,N,14120.4979,E,1,07,1.3,29.0,M,33.1,M,,0000*69
$GPGGA,023409.000,4304.5577,N,14120.4980,E,1,07,1.3,29.5,M,33.1,M,,0000*6A
$GPGGA,023410.000,4304.5588,N,14120.4978,E,1,07,1.3,30.0,M,33.1,M,,0000*68
$GPGGA,023411.000,4304.5599,N,14120.4977,E,1,07,1.3,30.6,M,33.1,M,,0000*60
$GPGGA,023412.000,4304.5608,N,14120.4975,E,1,07,1.3,31.2,M,33.1,M,,0000*6F
$GPGGA,023413.000,4304.5610,N,14120.4964,E,1,07,1.3,31.8,M,33.1,M,,0000*6D
$GPGGA,023414.000,4304.5607,N,14120.4954,E,1,07,1.3,32.2,M,33.1,M,,0000*66
$GPGGA,023415.000,4304.5604,N,14120.4945,E,1,07,1.3,32.9,M,33.1,M,,0000*6F
$GPGGA,023416.000,4304.5607,N,14120.4938,E,1,07,1.3,33.5,M,33.1,M,,0000*68
$GPGGA,023417.000,4304.5606,N,14120.4935,E,1,07,1.3,34.0,M,33.1,M,,0000*67
$GPGGA,023418.000,4304.5609,N,14120.4933,E,1,07,1.3,34.8,M,33.1,M,,0000*69
$GPGGA,023419.000,4304.5602,N,14120.4929,E,1,06,1.3,36.4,M,33.1,M,,0000*67
$GPGGA,023420.000,4304.5597,N,14120.4928,E,1,05,1.4,38.0,M,33.1,M,,0000*6D
$GPGGA,023421.000,4304.5597,N,14120.4928,E,1,05,1.4,38.9,M,33.1,M,,0000*65
$GPGGA,023422.000,4304.5595,N,14120.4924,E,1,07,1.3,39.8,M,33.1,M,,0000*6D
$GPGGA,023423.000,4304.5591,N,14120.4924,E,1,07,1.3,39.8,M,33.1,M,,0000*68
$GPGGA,023424.000,4304.5593,N,14120.4922,E,1,07,1.3,40.0,M,33.1,M,,0000*6D
$GPGGA,023425.000,4304.5597,N,14120.4921,E,1,07,1.3,40.2,M,33.1,M,,0000*69
$GPGGA,023426.000,4304.5607,N,14120.4918,E,1,07,1.3,40.9,M,33.1,M,,0000*61
$GPGGA,023427.000,4304.5615,N,14120.4917,E,1,07,1.3,41.9,M,33.1,M,,0000*6D
$GPGGA,023428.000,4304.5616,N,14120.4915,E,1,06,1.3,42.7,M,33.1,M,,0000*6F
$GPGGA,023429.000,4304.5615,N,14120.4914,E,1,06,1.3,43.6,M,33.1,M,,0000*6C
$GPGGA,023430.000,4304.5616,N,14120.4914,E,1,06,1.3,44.4,M,33.1,M,,0000*62
$GPGGA,023431.000,4304.5617,N,14120.4913,E,1,07,1.3,44.8,M,33.1,M,,0000*68
$GPGGA,023432.000,4304.5617,N,14120.4913,E,1,07,1.3,44.8,M,33.1,M,,0000*6B
$GPGGA,023433.000,4304.5617,N,14120.4913,E,1,06,1.3,44.8,M,33.1,M,,0000*6B
$GPGGA,023434.000,4304.5617,N,14120.4913,E,1,05,1.4,44.8,M,33.1,M,,0000*68
$GPGGA,023435.000,4304.5617,N,14120.4913,E,1,05,1.4,44.8,M,33.1,M,,0000*69
$GPGGA,023436.000,4304.5617,N,14120.4913,E,1,06,1.3,44.8,M,33.1,M,,0000*6E
$GPGGA,023437.000,4304.5647,N,14120.4914,E,1,07,1.3,48.8,M,33.1,M,,0000*60
$GPGGA,023438.000,4304.5652,N,14120.4913,E,1,06,1.6,49.6,M,33.1,M,,0000*67
$GPGGA,023439.000,4304.5660,N,14120.4913,E,1,06,1.6,50.0,M,33.1,M,,0000*69
$GPGGA,023440.000,4304.5671,N,14120.4915,E,1,07,1.3,50.3,M,33.1,M,,0000*66
$GPGGA,023441.000,4304.5681,N,14120.4915,E,1,07,1.3,51.0,M,33.1,M,,0000*6A
$GPGGA,023442.000,4304.5681,N,14120.4915,E,1,07,1.3,51.0,M,33.1,M,,0000*69
$GPGGA,023443.000,4304.5703,N,14120.4915,E,1,06,1.6,52.5,M,33.1,M,,0000*61
$GPGGA,023444.000,4304.5709,N,14120.4915,E,1,06,1.3,53.2,M,33.1,M,,0000*6F
$GPGGA,023445.000,4304.5716,N,14120.4915,E,1,05,1.4,54.2,M,33.1,M,,0000*63
$GPGGA,023446.000,4304.5725,N,14120.4916,E,1,05,1.4,55.0,M,33.1,M,,0000*60
$GPGGA,023447.000,4304.5730,N,14120.4917,E,1,06,1.3,55.9,M,33.1,M,,0000*69
$GPGGA,023448.000,4304.5736,N,14120.4916,E,1,07,1.3,56.7,M,33.1,M,,0000*6D
$GPGGA,023449.000,4304.5742,N,14120.4918,E,1,07,1.3,57.4,M,33.1,M,,0000*63
$GPGGA,023450.000,4304.5749,N,14120.4915,E,1,07,1.3,58.4,M,33.1,M,,0000*62
$GPGGA,023451.000,4304.5751,N,14120.4911,E,1,06,1.3,59.0,M,33.1,M,,0000*6A
$GPGGA,023452.000,4304.5751,N,14120.4911,E,1,05,1.4,59.0,M,33.1,M,,0000*6D
$GPGGA,023453.000,4304.5751,N,14120.4911,E,1,06,1.3,59.0,M,33.1,M,,0000*68
$GPGGA,023454.000,4304.5751,N,14120.4911,E,1,07,1.3,59.0,M,33.1,M,,0000*6E
$GPGGA,023455.000,4304.5778,N,14120.4907,E,1,07,1.3,61.9,M,33.1,M,,0000*61
$GPGGA,023456.000,4304.5783,N,14120.4905,E,1,07,1.3,63.2,M,33.1,M,,0000*6D
$GPGGA,023457.000,4304.5787,N,14120.4897,E,1,07,1.3,64.7,M,33.1,M,,0000*60
$GPGGA,023458.000,4304.5797,N,14120.4890,E,1,07,1.3,65.4,M,33.1,M,,0000*6B
$GPGGA,023459.000,4304.5808,N,14120.4887,E,1,07,1.3,66.1,M,33.1,M,,0000*63
$GPGGA,023500.000,4304.5819,N,14120.4887,E,1,07,1.3,66.7,M,33.1,M,,0000*68
$GPGGA,023501.000,4304.5826,N,14120.4886,E,1,07,1.3,67.4,M,33.1,M,,0000*66
$GPGGA,023502.000,4304.5828,N,14120.4885,E,1,05,1.4,68.1,M,33.1,M,,0000*67
$GPGGA,023503.000,4304.5834,N,14120.4881,E,1,06,1.3,68.3,M,33.1,M,,0000*69
$GPGGA,023504.000,4304.5837,N,14120.4882,E,1,06,1.3,68.6,M,33.1,M,,0000*6B
$GPGGA,023505.000,4304.5844,N,14120.4884,E,1,07,1.3,69.1,M,33.1,M,,0000*6F
$GPGGA,023506.000,4304.5850,N,14120.4884,E,1,07,1.3,69.7,M,33.1,M,,0000*6F
$GPGGA,023507.000,4304.5855,N,14120.4884,E,1,07,1.3,70.2,M,33.1,M,,0000*66
$GPGGA,023508.000,4304.5860,N,14120.4882,E,1,07,1.3,71.0,M,33.1,M,,0000*6A
$GPGGA,023509.000,4304.5867,N,14120.4881,E,1,05,1.4,71.5,M,33.1,M,,0000*6F
$GPGGA,023510.000,4304.5874,N,14120.4877,E,1,05,1.4,72.0,M,33.1,M,,0000*6A
$GPGGA,023511.000,4304.5878,N,14120.4874,E,1,05,1.4,72.5,M,33.1,M,,0000*61
$GPGGA,023512.000,4304.5883,N,14120.4871,E,1,06,1.3,73.0,M,33.1,M,,0000*63
$GPGGA,023513.000,4304.5886,N,14120.4873,E,1,07,1.3,73.2,M,33.1,M,,0000*66
$GPGGA,023514.000,4304.5895,N,14120.4874,E,1,06,1.3,73.4,M,33.1,M,,0000*63
$GPGGA,023515.000,4304.5902,N,14120.4875,E,1,07,1.3,73.7,M,33.1,M,,0000*6E
$GPGGA,023516.000,4304.5907,N,14120.4877,E,1,07,1.3,74.0,M,33.1,M,,0000*6A
$GPGGA,023517.000,4304.5910,N,14120.4879,E,1,07,1.3,74.4,M,33.1,M,,0000*67
$GPGGA,023518.000,4304.5915,N,14120.4883,E,1,07,1.3,74.9,M,33.1,M,,0000*65
$GPGGA,023519.000,4304.5926,N,14120.4892,E,1,07,1.3,75.1,M,33.1,M,,0000*6D
$GPGGA,023520.000,4304.5938,N,14120.4897,E,1,07,1.3,75.1,M,33.1,M,,0000*6D
$GPGGA,023521.000,4304.5949,N,14120.4898,E,1,07,1.3,75.4,M,33.1,M,,0000*60
$GPGGA,023522.000,4304.5954,N,14120.4896,E,1,06,1.3,75.8,M,33.1,M,,0000*6C
$GPGGA,023523.000,4304.5960,N,14120.4893,E,1,06,1.3,76.1,M,33.1,M,,0000*65
$GPGGA,023524.000,4304.5966,N,14120.4891,E,1,06,1.3,76.4,M,33.1,M,,0000*63
$GPGGA,023525.000,4304.5977,N,14120.4886,E,1,07,1.3,76.5,M,33.1,M,,0000*64
$GPGGA,023526.000,4304.5985,N,14120.4883,E,1,07,1.3,76.9,M,33.1,M,,0000*63
$GPGGA,023527.000,4304.5994,N,14120.4879,E,1,07,1.3,77.4,M,33.1,M,,0000*6B
$GPGGA,023528.000,4304.6001,N,14120.4876,E,1,07,1.3,77.8,M,33.1,M,,0000*61
$GPGGA,023529.000,4304.6009,N,14120.4876,E,1,07,1.3,78.0,M,33.1,M,,0000*6F
$GPGGA,023530.000,4304.6010,N,14120.4875,E,1,07,1.3,78.4,M,33.1,M,,0000*68
$GPGGA,023531.000,4304.6014,N,14120.4874,E,1,07,1.3,78.7,M,33.1,M,,0000*6F
$GPGGA,023532.000,4304.6022,N,14120.4873,E,1,07,1.3,79.3,M,33.1,M,,0000*6B
$GPGGA,023533.000,4304.6028,N,14120.4871,E,1,07,1.3,80.0,M,33.1,M,,0000*67
$GPGGA,023534.000,4304.6039,N,14120.4871,E,1,07,1.3,80.4,M,33.1,M,,0000*64
$GPGGA,023535.000,4304.6047,N,14120.4870,E,1,07,1.3,80.8,M,33.1,M,,0000*61
$GPGGA,023536.000,4304.6057,N,14120.4871,E,1,07,1.3,80.7,M,33.1,M,,0000*6D
$GPGGA,023537.000,4304.6062,N,14120.4872,E,1,07,1.3,80.5,M,33.1,M,,0000*6B
$GPGGA,023538.000,4304.6064,N,14120.4873,E,1,07,1.3,80.2,M,33.1,M,,0000*64
$GPGGA,023539.000,4304.6068,N,14120.4872,E,1,06,1.3,80.3,M,33.1,M,,0000*68
$GPGGA,023540.000,4304.6072,N,14120.4872,E,1,07,1.3,80.3,M,33.1,M,,0000*6C
$GPGGA,023541.000,4304.6077,N,14120.4871,E,1,07,1.3,80.0,M,33.1,M,,0000*68
$GPGGA,023542.000,4304.6082,N,14120.4867,E,1,07,1.3,80.3,M,33.1,M,,0000*65
$GPGGA,023543.000,4304.6081,N,14120.4860,E,1,07,1.3,80.3,M,33.1,M,,0000*60
$GPGGA,023544.000,4304.6082,N,14120.4855,E,1,07,1.3,80.3,M,33.1,M,,0000*62
$GPGGA,023545.000,4304.6088,N,14120.4852,E,1,07,1.3,80.4,M,33.1,M,,0000*69
$GPGGA,023546.000,4304.6094,N,14120.4848,E,1,07,1.3,80.6,M,33.1,M,,0000*6E
$GPGGA,023547.000,4304.6105,N,14120.4846,E,1,07,1.3,81.8,M,33.1,M,,0000*67
$GPGGA,023548.000,4304.6106,N,14120.4844,E,1,07,1.3,81.6,M,33.1,M,,0000*67
$GPGGA,023549.000,4304.6105,N,14120.4842,E,1,07,1.3,81.3,M,33.1,M,,0000*66
$GPGGA,023550.000,4304.6108,N,14120.4839,E,1,07,1.3,81.2,M,33.1,M,,0000*6E
$GPGGA,023551.000,4304.6107,N,14120.4837,E,1,07,1.3,81.0,M,33.1,M,,0000*6C
$GPGGA,023552.000,4304.6108,N,14120.4834,E,1,07,1.3,80.8,M,33.1,M,,0000*6A
$GPGGA,023553.000,4304.6110,N,14120.4830,E,1,07,1.3,80.5,M,33.1,M,,0000*6B
$GPGGA,023554.000,4304.6113,N,14120.4826,E,1,05,1.4,80.5,M,33.1,M,,0000*6D
$GPGGA,023555.000,4304.6120,N,14120.4826,E,1,07,1.3,81.6,M,33.1,M,,0000*6B
$GPGGA,023556.000,4304.6121,N,14120.4825,E,1,05,1.4,81.9,M,33.1,M,,0000*60
$GPGGA,023557.000,4304.6117,N,14120.4823,E,1,05,1.4,82.0,M,33.1,M,,0000*68
$GPGGA,023558.000,4304.6113,N,14120.4822,E,1,05,1.4,82.1,M,33.1,M,,0000*63
$GPGGA,023559.000,4304.6108,N,14120.4820,E,1,06,1.3,82.1,M,33.1,M,,0000*6E
$GPGGA,023600.000,4304.6110,N,14120.4816,E,1,07,1.3,82.1,M,33.1,M,,0000*6C
$GPGGA,023601.000,4304.6141,N,14120.4814,E,1,07,1.3,83.7,M,33.1,M,,0000*6C
$GPGGA,023602.000,4304.6137,N,14120.4810,E,1,07,1.3,82.9,M,33.1,M,,0000*65
$GPGGA,023603.000,4304.6130,N,14120.4801,E,1,07,1.3,82.0,M,33.1,M,,0000*6A
$GPGGA,023604.000,4304.6129,N,14120.4798,E,1,05,1.4,81.8,M,33.1,M,,0000*64
$GPGGA,023605.000,4304.6124,N,14120.4795,E,1,07,1.3,81.8,M,33.1,M,,0000*60
$GPGGA,023606.000,4304.6117,N,14120.4796,E,1,07,1.3,80.9,M,33.1,M,,0000*60
$GPGGA,023607.000,4304.6109,N,14120.4793,E,1,07,1.3,80.4,M,33.1,M,,0000*66
$GPGGA,023608.000,4304.6104,N,14120.4794,E,1,07,1.3,79.5,M,33.1,M,,0000*64
$GPGGA,023608.000,4304.6087,N,14120.4789,E,1,07,1.3,78.8,M,33.1,M,,0000*6E
$GPGGA,023609.000,4304.6079,N,14120.4784,E,1,07,1.3,78.6,M,33.1,M,,0000*6D
$GPGGA,023610.000,4304.6072,N,14120.4780,E,1,07,1.3,78.3,M,33.1,M,,0000*6F
$GPGGA,023611.000,4304.6063,N,14120.4776,E,1,07,1.3,78.2,M,33.1,M,,0000*66
$GPGGA,023612.000,4304.6058,N,14120.4774,E,1,07,1.3,77.9,M,33.1,M,,0000*6B
$GPGGA,023613.000,4304.6057,N,14120.4772,E,1,06,1.3,77.7,M,33.1,M,,0000*6C
$GPGGA,023614.000,4304.6056,N,14120.4772,E,1,05,1.4,77.4,M,33.1,M,,0000*6D
$GPGGA,023615.000,4304.6056,N,14120.4773,E,1,05,1.4,77.1,M,33.1,M,,0000*68
$GPGGA,023616.000,4304.6053,N,14120.4776,E,1,05,1.4,76.8,M,33.1,M,,0000*63
$GPGGA,023617.000,4304.6053,N,14120.4781,E,1,07,1.3,76.5,M,33.1,M,,0000*62
$GPGGA,023618.000,4304.6048,N,14120.4785,E,1,07,1.3,76.2,M,33.1,M,,0000*64
$GPGGA,023619.000,4304.6042,N,14120.4787,E,1,07,1.3,75.8,M,33.1,M,,0000*64
$GPGGA,023620.000,4304.6022,N,14120.4794,E,1,07,1.3,74.2,M,33.1,M,,0000*61
$GPGGA,023621.000,4304.6011,N,14120.4796,E,1,07,1.3,73.7,M,33.1,M,,0000*60
$GPGGA,023622.000,4304.6000,N,14120.4793,E,1,05,3.3,73.3,M,33.1,M,,0000*62
$GPGGA,023623.000,4304.5998,N,14120.4792,E,1,05,1.4,73.2,M,33.1,M,,0000*6D
$GPGGA,023624.000,4304.5994,N,14120.4793,E,1,06,1.4,72.9,M,33.1,M,,0000*6E
$GPGGA,023625.000,4304.5985,N,14120.4795,E,1,06,1.4,72.5,M,33.1,M,,0000*65
$GPGGA,023626.000,4304.5982,N,14120.4803,E,1,06,1.4,71.1,M,33.1,M,,0000*66
$GPGGA,023627.000,4304.5975,N,14120.4806,E,1,07,1.3,69.8,M,33.1,M,,0000*6C
$GPGGA,023628.000,4304.5967,N,14120.4807,E,1,07,1.3,68.5,M,33.1,M,,0000*6D
$GPGGA,023629.000,4304.5959,N,14120.4806,E,1,06,1.4,68.6,M,33.1,M,,0000*65
$GPGGA,023630.000,4304.5950,N,14120.4801,E,1,07,1.3,68.5,M,33.1,M,,0000*66
$GPGGA,023631.000,4304.5944,N,14120.4802,E,1,05,1.4,68.7,M,33.1,M,,0000*66
$GPGGA,023632.000,4304.5937,N,14120.4808,E,1,06,1.4,68.8,M,33.1,M,,0000*67
$GPGGA,023633.000,4304.5931,N,14120.4817,E,1,07,1.3,69.0,M,33.1,M,,0000*61
$GPGGA,023634.000,4304.5934,N,14120.4818,E,1,07,1.3,69.4,M,33.1,M,,0000*68
$GPGGA,023635.000,4304.5933,N,14120.4819,E,1,07,1.3,69.6,M,33.1,M,,0000*6D
$GPGGA,023636.000,4304.5928,N,14120.4818,E,1,07,1.3,69.7,M,33.1,M,,0000*64
$GPGGA,023637.000,4304.5922,N,14120.4816,E,1,07,1.3,69.8,M,33.1,M,,0000*6E
$GPGGA,023638.000,4304.5914,N,14120.4814,E,1,07,1.3,69.8,M,33.1,M,,0000*66
$GPGGA,023639.000,4304.5906,N,14120.4812,E,1,07,1.3,70.0,M,33.1,M,,0000*62
$GPGGA,023640.000,4304.5897,N,14120.4807,E,1,07,1.3,69.9,M,33.1,M,,0000*60
$GPGGA,023641.000,4304.5887,N,14120.4801,E,1,06,1.6,69.9,M,33.1,M,,0000*62
$GPGGA,023642.000,4304.5879,N,14120.4793,E,1,06,1.6,69.8,M,33.1,M,,0000*65
$GPGGA,023643.000,4304.5876,N,14120.4785,E,1,06,1.6,69.4,M,33.1,M,,0000*60
$GPGGA,023644.000,4304.5869,N,14120.4767,E,1,07,1.3,69.0,M,33.1,M,,0000*65
$GPGGA,023645.000,4304.5863,N,14120.4760,E,1,07,1.3,68.9,M,33.1,M,,0000*61
$GPGGA,023646.000,4304.5855,N,14120.4752,E,1,07,1.3,68.8,M,33.1,M,,0000*67
$GPGGA,023647.000,4304.5843,N,14120.4745,E,1,07,1.3,68.7,M,33.1,M,,0000*68
$GPGGA,023648.000,4304.5834,N,14120.4744,E,1,06,1.4,68.7,M,33.1,M,,0000*60
$GPGGA,023649.000,4304.5824,N,14120.4740,E,1,07,1.3,68.7,M,33.1,M,,0000*62
$GPGGA,023650.000,4304.5775,N,14120.4716,E,1,08,1.1,69.2,M,33.1,M,,0000*6B
$GPGGA,023651.000,4304.5753,N,14120.4706,E,1,07,1.3,68.2,M,33.1,M,,0000*63
$GPGGA,023652.000,4304.5739,N,14120.4704,E,1,07,1.3,68.4,M,33.1,M,,0000*68
$GPGGA,023653.000,4304.5732,N,14120.4704,E,1,07,1.3,68.3,M,33.1,M,,0000*65
$GPGGA,023654.000,4304.5726,N,14120.4702,E,1,07,1.3,68.4,M,33.1,M,,0000*66
$GPGGA,023655.000,4304.5717,N,14120.4699,E,1,07,1.3,68.6,M,33.1,M,,0000*64
$GPGGA,023656.000,4304.5711,N,14120.4695,E,1,07,1.3,69.1,M,33.1,M,,0000*6B
$GPGGA,023657.000,4304.5705,N,14120.4689,E,1,07,1.3,69.4,M,33.1,M,,0000*67
$GPGGA,023658.000,4304.5696,N,14120.4683,E,1,07,1.3,69.0,M,33.1,M,,0000*6D
$GPGGA,023659.000,4304.5690,N,14120.4677,E,1,07,1.3,69.1,M,33.1,M,,0000*60
$GPGGA,023700.000,4304.5684,N,14120.4671,E,1,07,1.3,68.8,M,33.1,M,,0000*66
$GPGGA,023701.000,4304.5672,N,14120.4662,E,1,07,1.3,68.6,M,33.1,M,,0000*62
$GPGGA,023702.000,4304.5664,N,14120.4662,E,1,08,1.2,66.6,M,33.1,M,,0000*66
$GPGGA,023703.000,4304.5656,N,14120.4658,E,1,08,1.2,66.0,M,33.1,M,,0000*69
$GPGGA,023704.000,4304.5652,N,14120.4652,E,1,08,1.2,65.6,M,33.1,M,,0000*65
$GPGGA,023705.000,4304.5646,N,14120.4649,E,1,06,1.7,65.3,M,33.1,M,,0000*65
$GPGGA,023706.000,4304.5642,N,14120.4646,E,1,07,1.6,65.2,M,33.1,M,,0000*6C
$GPGGA,023707.000,4304.5637,N,14120.4645,E,1,08,1.2,64.8,M,33.1,M,,0000*6C
$GPGGA,023708.000,4304.5634,N,14120.4642,E,1,08,1.2,64.1,M,33.1,M,,0000*6E
$GPGGA,023709.000,4304.5628,N,14120.4641,E,1,08,1.2,62.0,M,33.1,M,,0000*66
$GPGGA,023710.000,4304.5622,N,14120.4641,E,1,08,1.2,61.1,M,33.1,M,,0000*66
$GPGGA,023711.000,4304.5617,N,14120.4640,E,1,08,1.2,60.2,M,33.1,M,,0000*62
$GPGGA,023712.000,4304.5612,N,14120.4640,E,1,08,1.2,59.4,M,33.1,M,,0000*68
$GPGGA,023713.000,4304.5605,N,14120.4642,E,1,08,1.2,58.3,M,33.1,M,,0000*6B
$GPGGA,023714.000,4304.5597,N,14120.4643,E,1,09,1.0,57.9,M,33.1,M,,0000*63
$GPGGA,023715.000,4304.5590,N,14120.4645,E,1,08,1.2,56.2,M,33.1,M,,0000*6A
$GPGGA,023716.000,4304.5584,N,14120.4646,E,1,08,1.2,55.0,M,33.1,M,,0000*6E
$GPGGA,023717.000,4304.5578,N,14120.4648,E,1,08,1.2,53.9,M,33.1,M,,0000*6D
$GPGGA,023718.000,4304.5573,N,14120.4646,E,1,09,1.0,53.4,M,33.1,M,,0000*69
$GPGGA,023719.000,4304.5568,N,14120.4645,E,1,08,1.2,52.6,M,33.1,M,,0000*61
$GPGGA,023720.000,4304.5562,N,14120.4644,E,1,08,1.2,52.0,M,33.1,M,,0000*66
$GPGGA,023721.000,4304.5557,N,14120.4644,E,1,08,1.2,51.3,M,33.1,M,,0000*61
$GPGGA,023722.000,4304.5551,N,14120.4643,E,1,08,1.2,50.7,M,33.1,M,,0000*66
$GPGGA,023723.000,4304.5541,N,14120.4645,E,1,09,1.0,48.9,M,33.1,M,,0000*64
$GPGGA,023724.000,4304.5535,N,14120.4645,E,1,08,1.2,48.3,M,33.1,M,,0000*69
$GPGGA,023725.000,4304.5531,N,14120.4643,E,1,06,1.7,47.8,M,33.1,M,,0000*65
$GPGGA,023726.000,4304.5526,N,14120.4641,E,1,07,1.6,47.3,M,33.1,M,,0000*69
$GPGGA,023727.000,4304.5521,N,14120.4639,E,1,07,1.6,46.4,M,33.1,M,,0000*66
$GPGGA,023728.000,4304.5516,N,14120.4635,E,1,08,1.2,45.8,M,33.1,M,,0000*65
$GPGGA,023729.000,4304.5511,N,14120.4629,E,1,08,1.2,45.2,M,33.1,M,,0000*64
$GPGGA,023730.000,4304.5505,N,14120.4623,E,1,08,1.2,44.6,M,33.1,M,,0000*66
$GPGGA,023731.000,4304.5502,N,14120.4618,E,1,08,1.2,44.3,M,33.1,M,,0000*6D
$GPGGA,023732.000,4304.5504,N,14120.4611,E,1,08,1.2,44.1,M,33.1,M,,0000*63
$GPGGA,023733.000,4304.5507,N,14120.4604,E,1,08,1.2,43.9,M,33.1,M,,0000*6A
$GPGGA,023734.000,4304.5507,N,14120.4601,E,1,08,1.2,43.7,M,33.1,M,,0000*66
$GPGGA,023735.000,4304.5508,N,14120.4599,E,1,08,1.2,43.1,M,33.1,M,,0000*6C
$GPGGA,023736.000,4304.5508,N,14120.4602,E,1,08,1.2,42.8,M,33.1,M,,0000*66
$GPGGA,023737.000,4304.5509,N,14120.4605,E,1,08,1.2,42.7,M,33.1,M,,0000*6E
$GPGGA,023738.000,4304.5509,N,14120.4605,E,1,07,1.3,42.7,M,33.1,M,,0000*6F
$GPGGA,023739.000,4304.5509,N,14120.4605,E,1,08,1.2,42.7,M,33.1,M,,0000*60
$GPGGA,023740.000,4304.5509,N,14120.4605,E,1,08,1.2,42.7,M,33.1,M,,0000*6E
$GPGGA,023741.000,4304.5509,N,14120.4605,E,1,07,1.4,42.7,M,33.1,M,,0000*66
$GPGGA,023742.000,4304.5509,N,14120.4605,E,1,07,1.4,42.7,M,33.1,M,,0000*65
$GPGGA,023743.000,4304.5509,N,14120.4605,E,1,07,1.4,42.7,M,33.1,M,,0000*64
$GPGGA,023744.000,4304.5509,N,14120.4605,E,1,08,1.2,42.7,M,33.1,M,,0000*6A
$GPGGA,023745.000,4304.5509,N,14120.4605,E,1,08,1.2,42.7,M,33.1,M,,0000*6B
$GPGGA,023746.000,4304.5509,N,14120.4605,E,1,08,1.2,42.7,M,33.1,M,,0000*68
$GPGGA,023747.000,4304.5509,N,14120.4605,E,1,08,1.2,42.7,M,33.1,M,,0000*69
$GPGGA,023748.000,4304.5509,N,14120.4605,E,1,08,1.2,42.7,M,33.1,M,,0000*66
$GPGGA,023749.000,4304.5509,N,14120.4605,E,1,09,1.0,42.7,M,33.1,M,,0000*64
$GPGGA,023750.000,4304.5509,N,14120.4605,E,1,10,1.0,42.7,M,33.1,M,,0000*64
$GPGGA,023751.000,4304.5509,N,14120.4605,E,1,10,1.0,42.7,M,33.1,M,,0000*65
$GPGGA,023752.000,4304.5509,N,14120.4605,E,1,10,1.0,42.7,M,33.1,M,,0000*66
$GPGGA,023753.000,4304.5509,N,14120.4605,E,1,10,1.0,42.7,M,33.1,M,,0000*67
$GPGGA,023754.000,4304.5509,N,14120.4605,E,1,09,1.2,42.7,M,33.1,M,,0000*6A
$GPGGA,023755.000,4304.5509,N,14120.4605,E,1,09,1.2,42.7,M,33.1,M,,0000*6B
$GPGGA,023756.000,4304.5509,N,14120.4605,E,1,08,1.2,42.7,M,33.1,M,,0000*69
$GPGGA,023757.000,4304.5509,N,14120.4605,E,1,07,1.2,42.7,M,33.1,M,,0000*67
$GPGGA,023758.000,4304.5509,N,14120.4605,E,1,06,1.7,42.7,M,33.1,M,,0000*6C
$GPGGA,023759.000,4304.5509,N,14120.4605,E,1,05,2.8,42.7,M,33.1,M,,0000*62
$GPGGA,023800.000,4304.5509,N,14120.4605,E,1,06,2.8,42.7,M,33.1,M,,0000*62
$GPGGA,023801.000,4304.5522,N,14120.4606,E,1,07,1.2,42.0,M,33.1,M,,0000*66
$GPGGA,023802.000,4304.5524,N,14120.4606,E,1,07,1.2,42.1,M,33.1,M,,0000*62
$GPGGA,023803.000,4304.5527,N,14120.4606,E,1,07,1.2,42.4,M,33.1,M,,0000*65
$GPGGA,023804.000,4304.5528,N,14120.4605,E,1,07,1.2,42.4,M,33.1,M,,0000*6E
$GPGGA,023805.000,4304.5528,N,14120.4604,E,1,07,1.2,42.6,M,33.1,M,,0000*6C
$GPGGA,023806.000,4304.5529,N,14120.4602,E,1,06,1.7,42.8,M,33.1,M,,0000*62
$GPGGA,023807.000,4304.5528,N,14120.4601,E,1,06,1.7,42.9,M,33.1,M,,0000*60
$GPGGA,023808.000,4304.5527,N,14120.4602,E,1,07,1.6,42.9,M,33.1,M,,0000*63
$GPGGA,023809.000,4304.5525,N,14120.4605,E,1,07,1.6,42.9,M,33.1,M,,0000*67
$GPGGA,023810.000,4304.5525,N,14120.4605,E,1,07,1.6,42.9,M,33.1,M,,0000*6F
$GPGGA,023811.000,4304.5525,N,14120.4605,E,1,07,1.6,42.9,M,33.1,M,,0000*6E
$GPGGA,023812.000,4304.5525,N,14120.4605,E,1,07,1.6,42.9,M,33.1,M,,0000*6D
$GPGGA,023813.000,4304.5525,N,14120.4605,E,1,07,1.6,42.9,M,33.1,M,,0000*6C
$GPGGA,023814.000,4304.5525,N,14120.4605,E,1,07,1.6,42.9,M,33.1,M,,0000*6B
$GPGGA,023815.000,4304.5525,N,14120.4605,E,1,08,1.3,42.9,M,33.1,M,,0000*60
$GPGGA,023816.000,4304.5525,N,14120.4605,E,1,08,1.3,42.9,M,33.1,M,,0000*63
$GPGGA,023817.000,4304.5525,N,14120.4605,E,1,08,1.3,42.9,M,33.1,M,,0000*62
$GPGGA,023818.000,4304.5525,N,14120.4605,E,1,08,1.3,42.9,M,33.1,M,,0000*6D
$GPGGA,023819.000,4304.5525,N,14120.4605,E,1,08,1.3,42.9,M,33.1,M,,0000*6C
$GPGGA,023820.000,4304.5525,N,14120.4605,E,1,08,1.3,42.9,M,33.1,M,,0000*66
$GPGGA,023821.000,4304.5525,N,14120.4605,E,1,09,1.2,42.9,M,33.1,M,,0000*67
$GPGGA,023822.000,4304.5525,N,14120.4605,E,1,09,1.2,42.9,M,33.1,M,,0000*64
$GPGGA,023823.000,4304.5525,N,14120.4605,E,1,09,1.2,42.9,M,33.1,M,,0000*65
$GPGGA,023824.000,4304.5525,N,14120.4605,E,1,09,1.2,42.9,M,33.1,M,,0000*62
$GPGGA,023825.000,4304.5525,N,14120.4605,E,1,09,1.2,42.9,M,33.1,M,,0000*63
$GPGGA,023826.000,4304.5525,N,14120.4605,E,1,09,1.2,42.9,M,33.1,M,,0000*60
$GPGGA,023827.000,4304.5525,N,14120.4605,E,1,09,1.2,42.9,M,33.1,M,,0000*61
$GPGGA,023828.000,4304.5525,N,14120.4605,E,1,09,1.2,42.9,M,33.1,M,,0000*6E
$GPGGA,023829.000,4304.5525,N,14120.4605,E,1,09,1.2,42.9,M,33.1,M,,0000*6F
$GPGGA,023830.000,4304.5525,N,14120.4605,E,1,09,1.2,42.9,M,33.1,M,,0000*67
$GPGGA,023831.000,4304.5525,N,14120.4605,E,1,07,1.7,42.9,M,33.1,M,,0000*6D
$GPGGA,023832.000,4304.5525,N,14120.4605,E,1,05,3.5,42.9,M,33.1,M,,0000*6C
$GPGGA,023833.000,4304.5525,N,14120.4605,E,1,07,1.5,42.9,M,33.1,M,,0000*6D
$GPGGA,023834.000,4304.5525,N,14120.4605,E,1,07,1.6,42.9,M,33.1,M,,0000*69
$GPGGA,023835.000,4304.5525,N,14120.4605,E,1,07,1.6,42.9,M,33.1,M,,0000*68
$GPGGA,023836.000,4304.5525,N,14120.4605,E,1,08,1.5,42.9,M,33.1,M,,0000*67
$GPGGA,023837.000,4304.5525,N,14120.4605,E,1,08,1.5,42.9,M,33.1,M,,0000*66
$GPGGA,023838.000,4304.5525,N,14120.4605,E,1,08,1.5,42.9,M,33.1,M,,0000*69
$GPGGA,023839.000,4304.5525,N,14120.4605,E,1,09,1.2,42.9,M,33.1,M,,0000*6E
$GPGGA,023840.000,4304.5507,N,14120.4627,E,1,09,1.2,40.6,M,33.1,M,,0000*6D
$GPGGA,023841.000,4304.5511,N,14120.4632,E,1,09,1.2,40.9,M,33.1,M,,0000*60
$GPGGA,023842.000,4304.5508,N,14120.4650,E,1,09,1.2,40.0,M,33.1,M,,0000*66
$GPGGA,023843.000,4304.5500,N,14120.4662,E,1,08,1.4,38.2,M,33.1,M,,0000*64
$GPGGA,023844.000,4304.5500,N,14120.4662,E,1,09,1.2,38.2,M,33.1,M,,0000*64
$GPGGA,023845.000,4304.5497,N,14120.4671,E,1,09,1.2,35.1,M,33.1,M,,0000*66
$GPGGA,023846.000,4304.5496,N,14120.4677,E,1,08,1.5,34.1,M,33.1,M,,0000*65
$GPGGA,023847.000,4304.5500,N,14120.4679,E,1,09,1.2,33.6,M,33.1,M,,0000*62
$GPGGA,023848.000,4304.5503,N,14120.4682,E,1,09,1.2,33.1,M,33.1,M,,0000*6D
$GPGGA,023849.000,4304.5505,N,14120.4681,E,1,09,1.2,32.3,M,33.1,M,,0000*6A
$GPGGA,023850.000,4304.5505,N,14120.4680,E,1,09,1.2,32.3,M,33.1,M,,0000*63
$GPGGA,023851.000,4304.5507,N,14120.4673,E,1,09,1.2,31.6,M,33.1,M,,0000*6A
$GPGGA,023852.000,4304.5516,N,14120.4654,E,1,10,1.0,30.1,M,33.1,M,,0000*60
$GPGGA,023853.000,4304.5516,N,14120.4654,E,1,09,1.2,30.1,M,33.1,M,,0000*6B
$GPGGA,023854.000,4304.5516,N,14120.4654,E,1,08,1.2,30.1,M,33.1,M,,0000*6D
$GPGGA,023855.000,4304.5516,N,14120.4654,E,1,09,1.2,30.1,M,33.1,M,,0000*6D
$GPGGA,023856.000,4304.5516,N,14120.4654,E,1,09,1.2,30.1,M,33.1,M,,0000*6E
$GPGGA,023857.000,4304.5516,N,14120.4654,E,1,10,1.0,30.1,M,33.1,M,,0000*65
$GPGGA,023858.000,4304.5516,N,14120.4654,E,1,09,1.2,30.1,M,33.1,M,,0000*60
$GPGGA,023859.000,4304.5516,N,14120.4654,E,1,09,1.2,30.1,M,33.1,M,,0000*61
$GPGGA,023900.000,4304.5512,N,14120.4628,E,1,09,1.2,29.0,M,33.1,M,,0000*6A
$GPGGA,023901.000,4304.5511,N,14120.4634,E,1,09,1.2,28.8,M,33.1,M,,0000*6C
$GPGGA,023902.000,4304.5511,N,14120.4641,E,1,09,1.2,28.5,M,33.1,M,,0000*60
$GPGGA,023903.000,4304.5510,N,14120.4648,E,1,09,1.2,28.3,M,33.1,M,,0000*6F
$GPGGA,023904.000,4304.5509,N,14120.4656,E,1,09,1.2,28.2,M,33.1,M,,0000*6E
$GPGGA,023905.000,4304.5507,N,14120.4664,E,1,09,1.2,28.2,M,33.1,M,,0000*60
$GPGGA,023906.000,4304.5507,N,14120.4672,E,1,09,1.2,28.1,M,33.1,M,,0000*67
$GPGGA,023907.000,4304.5507,N,14120.4680,E,1,09,1.2,28.2,M,33.1,M,,0000*68
$GPGGA,023908.000,4304.5509,N,14120.4688,E,1,09,1.2,28.2,M,33.1,M,,0000*61
$GPGGA,023909.000,4304.5510,N,14120.4693,E,1,09,1.2,28.1,M,33.1,M,,0000*61
$GPGGA,023910.000,4304.5510,N,14120.4691,E,1,09,1.2,28.2,M,33.1,M,,0000*68
$GPGGA,023911.000,4304.5515,N,14120.4684,E,1,09,1.2,28.0,M,33.1,M,,0000*6A
$GPGGA,023912.000,4304.5515,N,14120.4684,E,1,09,1.2,28.0,M,33.1,M,,0000*69
$GPGGA,023913.000,4304.5515,N,14120.4684,E,1,09,1.2,28.0,M,33.1,M,,0000*68
$GPGGA,023914.000,4304.5515,N,14120.4684,E,1,09,1.2,28.0,M,33.1,M,,0000*6F
$GPGGA,023915.000,4304.5515,N,14120.4684,E,1,09,1.2,28.0,M,33.1,M,,0000*6E
$GPGGA,023916.000,4304.5515,N,14120.4684,E,1,09,1.2,28.0,M,33.1,M,,0000*6D
$GPGGA,023917.000,4304.5515,N,14120.4684,E,1,09,1.2,28.0,M,33.1,M,,0000*6C
$GPGGA,023918.000,4304.5515,N,14120.4684,E,1,09,1.2,28.0,M,33.1,M,,0000*63
$GPGGA,023919.000,4304.5515,N,14120.4684,E,1,09,1.2,28.0,M,33.1,M,,0000*62
$GPGGA,023920.000,4304.5515,N,14120.4684,E,1,10,1.0,28.0,M,33.1,M,,0000*62
$GPGGA,023921.000,4304.5515,N,14120.4684,E,1,10,1.0,28.0,M,33.1,M,,0000*63
$GPGGA,023922.000,4304.5515,N,14120.4684,E,1,09,1.2,28.0,M,33.1,M,,0000*6A
$GPGGA,023923.000,4304.5515,N,14120.4684,E,1,09,1.2,28.0,M,33.1,M,,0000*6B
$GPGGA,023924.000,4304.5515,N,14120.4684,E,1,09,1.2,28.0,M,33.1,M,,0000*6C
$GPGGA,023925.000,4304.5515,N,14120.4684,E,1,09,1.2,28.0,M,33.1,M,,0000*6D
$GPGGA,023926.000,4304.5515,N,14120.4684,E,1,09,1.2,28.0,M,33.1,M,,0000*6E
$GPGGA,023927.000,4304.5515,N,14120.4684,E,1,09,1.2,28.0,M,33.1,M,,0000*6F
$GPGGA,023928.000,4304.5515,N,14120.4684,E,1,09,1.2,28.0,M,33.1,M,,0000*60
$GPGGA,023929.000,4304.5515,N,14120.4684,E,1,09,1.2,28.0,M,33.1,M,,0000*61
$GPGGA,023930.000,4304.5515,N,14120.4684,E,1,09,1.2,28.0,M,33.1,M,,0000*69
$GPGGA,023931.000,4304.5515,N,14120.4684,E,1,09,1.2,28.0,M,33.1,M,,0000*68
$GPGGA,023932.000,4304.5515,N,14120.4684,E,1,09,1.2,28.0,M,33.1,M,,0000*6B
$GPGGA,023933.000,4304.5515,N,14120.4684,E,1,09,1.2,28.0,M,33.1,M,,0000*6A
$GPGGA,023934.000,4304.5515,N,14120.4684,E,1,10,1.0,28.0,M,33.1,M,,0000*67
$GPGGA,023935.000,4304.5515,N,14120.4684,E,1,09,1.2,28.0,M,33.1,M,,0000*6C
$GPGGA,023936.000,4304.5515,N,14120.4684,E,1,10,1.0,28.0,M,33.1,M,,0000*65
$GPGGA,023937.000,4304.5515,N,14120.4684,E,1,08,1.5,28.0,M,33.1,M,,0000*68
$GPGGA,023938.000,4304.5515,N,14120.4684,E,1,09,1.2,28.0,M,33.1,M,,0000*61
$GPGGA,023939.000,4304.5515,N,14120.4684,E,1,09,1.2,28.0,M,33.1,M,,0000*60
$GPGGA,023940.000,4304.5515,N,14120.4684,E,1,09,1.2,28.0,M,33.1,M,,0000*6E
$GPGGA,023941.000,4304.5515,N,14120.4684,E,1,09,1.2,28.0,M,33.1,M,,0000*6F
$GPGGA,023942.000,4304.5515,N,14120.4684,E,1,09,1.2,28.0,M,33.1,M,,0000*6C
$GPGGA,023943.000,4304.5508,N,14120.4640,E,1,10,1.0,33.1,M,33.1,M,,0000*68
$GPGGA,023944.000,4304.5507,N,14120.4632,E,1,10,1.0,34.2,M,33.1,M,,0000*61
$GPGGA,023945.000,4304.5505,N,14120.4625,E,1,10,1.0,35.5,M,33.1,M,,0000*62
$GPGGA,023946.000,4304.5504,N,14120.4617,E,1,09,1.2,36.6,M,33.1,M,,0000*6B
$GPGGA,023947.000,4304.5502,N,14120.4610,E,1,09,1.2,37.3,M,33.1,M,,0000*6F
$GPGGA,023948.000,4304.5499,N,14120.4605,E,1,09,1.2,37.6,M,33.1,M,,0000*62
$GPGGA,023949.000,4304.5497,N,14120.4601,E,1,09,1.2,37.9,M,33.1,M,,0000*66
$GPGGA,023950.000,4304.5494,N,14120.4598,E,1,10,1.0,38.3,M,33.1,M,,0000*61
$GPGGA,023951.000,4304.5492,N,14120.4593,E,1,10,1.0,38.6,M,33.1,M,,0000*68
$GPGGA,023952.000,4304.5491,N,14120.4586,E,1,10,1.0,38.8,M,33.1,M,,0000*62
$GPGGA,023953.000,4304.5489,N,14120.4579,E,1,09,1.2,38.7,M,33.1,M,,0000*6F
$GPGGA,023954.000,4304.5487,N,14120.4572,E,1,07,1.7,38.8,M,33.1,M,,0000*69
$GPGGA,023955.000,4304.5486,N,14120.4567,E,1,09,1.2,38.8,M,33.1,M,,0000*66
$GPGGA,023956.000,4304.5485,N,14120.4562,E,1,09,1.2,38.7,M,33.1,M,,0000*6C
$GPGGA,023957.000,4304.5485,N,14120.4559,E,1,09,1.2,38.2,M,33.1,M,,0000*60
$GPGGA,023958.000,4304.5485,N,14120.4559,E,1,09,1.2,38.0,M,33.1,M,,0000*6D
$GPGGA,023959.000,4304.5485,N,14120.4558,E,1,09,1.2,37.9,M,33.1,M,,0000*6B
$GPGGA,024000.000,4304.5485,N,14120.4559,E,1,09,1.2,38.1,M,33.1,M,,0000*6F
$GPGGA,024001.000,4304.5485,N,14120.4559,E,1,09,1.2,38.1,M,33.1,M,,0000*6E
$GPGGA,024002.000,4304.5485,N,14120.4559,E,1,09,1.2,38.1,M,33.1,M,,0000*6D
$GPGGA,024003.000,4304.5491,N,14120.4557,E,1,09,1.2,38.0,M,33.1,M,,0000*66
$GPGGA,024004.000,4304.5493,N,14120.4554,E,1,09,1.2,38.1,M,33.1,M,,0000*61
$GPGGA,024005.000,4304.5493,N,14120.4554,E,1,09,1.2,38.1,M,33.1,M,,0000*60
$GPGGA,024006.000,4304.5492,N,14120.4555,E,1,09,1.2,38.1,M,33.1,M,,0000*63
$GPGGA,024007.000,4304.5492,N,14120.4555,E,1,09,1.2,38.1,M,33.1,M,,0000*62
$GPGGA,024008.000,4304.5492,N,14120.4555,E,1,09,1.2,38.1,M,33.1,M,,0000*6D
$GPGGA,024009.000,4304.5492,N,14120.4555,E,1,09,1.2,38.1,M,33.1,M,,0000*6C
$GPGGA,024010.000,4304.5492,N,14120.4555,E,1,09,1.2,38.1,M,33.1,M,,0000*64
$GPGGA,024011.000,4304.5492,N,14120.4555,E,1,09,1.2,38.1,M,33.1,M,,0000*65
$GPGGA,024012.000,4304.5492,N,14120.4555,E,1,09,1.2,38.1,M,33.1,M,,0000*66
$GPGGA,024013.000,4304.5492,N,14120.4555,E,1,09,1.2,38.1,M,33.1,M,,0000*67
$GPGGA,024014.000,4304.5492,N,14120.4555,E,1,09,1.2,38.1,M,33.1,M,,0000*60
$GPGGA,024015.000,4304.5492,N,14120.4555,E,1,09,1.2,38.1,M,33.1,M,,0000*61
$GPGGA,024016.000,4304.5492,N,14120.4555,E,1,09,1.2,38.1,M,33.1,M,,0000*62
$GPGGA,024017.000,4304.5492,N,14120.4555,E,1,09,1.2,38.1,M,33.1,M,,0000*63
$GPGGA,024018.000,4304.5492,N,14120.4555,E,1,09,1.2,38.1,M,33.1,M,,0000*6C
$GPGGA,024019.000,4304.5492,N,14120.4555,E,1,09,1.2,38.1,M,33.1,M,,0000*6D
$GPGGA,024020.000,4304.5492,N,14120.4555,E,1,09,1.2,38.1,M,33.1,M,,0000*67
$GPGGA,024021.000,4304.5492,N,14120.4555,E,1,09,1.2,38.1,M,33.1,M,,0000*66
$GPGGA,024022.000,4304.5492,N,14120.4555,E,1,09,1.2,38.1,M,33.1,M,,0000*65
$GPGGA,024023.000,4304.5492,N,14120.4555,E,1,09,1.2,38.1,M,33.1,M,,0000*64
$GPGGA,024024.000,4304.5492,N,14120.4555,E,1,09,1.2,38.1,M,33.1,M,,0000*63
$GPGGA,024025.000,4304.5492,N,14120.4555,E,1,07,1.7,38.1,M,33.1,M,,0000*69
$GPGGA,024026.000,4304.5492,N,14120.4555,E,1,07,1.5,38.1,M,33.1,M,,0000*68
$GPGGA,024027.000,4304.5492,N,14120.4555,E,1,07,1.5,38.1,M,33.1,M,,0000*69
$GPGGA,024028.000,4304.5492,N,14120.4555,E,1,07,1.5,38.1,M,33.1,M,,0000*66
$GPGGA,024029.000,4304.5492,N,14120.4555,E,1,07,1.5,38.1,M,33.1,M,,0000*67
$GPGGA,024030.000,4304.5492,N,14120.4555,E,1,08,1.3,38.1,M,33.1,M,,0000*66
$GPGGA,024031.000,4304.5492,N,14120.4555,E,1,08,1.3,38.1,M,33.1,M,,0000*67
$GPGGA,024032.000,4304.5492,N,14120.4555,E,1,08,1.3,38.1,M,33.1,M,,0000*64
$GPGGA,024033.000,4304.5492,N,14120.4555,E,1,08,1.3,38.1,M,33.1,M,,0000*65
$GPGGA,024034.000,4304.5492,N,14120.4555,E,1,07,1.3,38.1,M,33.1,M,,0000*6D
$GPGGA,024035.000,4304.5492,N,14120.4555,E,1,08,1.3,38.1,M,33.1,M,,0000*63
$GPGGA,024036.000,4304.5492,N,14120.4555,E,1,08,1.3,38.1,M,33.1,M,,0000*60
